     3.01           OBSERVATION DATA    G (GPS)             RINEX VERSION / TYPE
GINA GNSS Simulator Robert Bosch Gmbh.  20180612 153428 UTC PGM / RUN BY / DATE
C1 modelled using GNSS SIM                                  COMMENT
https://github.com/PINAProject/PINA                         COMMENT
Header contents might be invalid in some cases.             COMMENT
---                                                         MARKER NAME
                                                            MARKER NUMBER
---                                                         MARKER TYPE
CC/ENG2             VMPS System Simulation                  OBSERVER / AGENCY
---                 ---                 1.0.0               REC # / TYPE / VERS
---                 No modelled antenna                     ANT # / TYPE
        0.0000        0.0000        0.0000                  APPROX POSITION XYZ
        0.0000        0.0000        0.0000                  ANTENNA: DELTA H/E/N
G    1 C1C                                                  SYS / # / OBS TYPES
1                                                           SIGNAL STRENGTH UNIT
     0.100                                                  INTERVAL
  2018     3    15    18    48   49.1000000     GPS         TIME OF FIRST OBS
  2018     3    15    18    51   19.1000000     GPS         TIME OF LAST OBS
     9                                                      # OF SATELLITES
                                                            END OF HEADER
> 2018 03 15 18 48 49.1000000  0  9      
G04  20419474.944 0
G05  23340326.789 0
G16  23482148.644 0
G20  22652531.013 0
G21  21427704.627 0
G25  22635805.807 0
G26  21477893.016 0
G29  20728807.242 0
G31  22431990.077 0
> 2018 03 15 18 48 49.2000000  0  9      
G04  20419453.058 0
G05  23340340.915 0
G16  23482085.433 0
G20  22652482.076 0
G21  21427674.060 0
G25  22635865.764 0
G26  21477852.121 0
G29  20728836.973 0
G31  22432033.781 0
> 2018 03 15 18 48 49.3000000  0  9      
G04  20419431.173 0
G05  23340355.042 0
G16  23482022.222 0
G20  22652433.139 0
G21  21427643.494 0
G25  22635925.721 0
G26  21477811.226 0
G29  20728866.705 0
G31  22432077.487 0
> 2018 03 15 18 48 49.4000000  0  9      
G04  20419409.289 0
G05  23340369.169 0
G16  23481959.012 0
G20  22652384.202 0
G21  21427612.929 0
G25  22635985.679 0
G26  21477770.333 0
G29  20728896.436 0
G31  22432121.194 0
> 2018 03 15 18 48 49.5000000  0  9      
G04  20419387.407 0
G05  23340383.297 0
G16  23481895.803 0
G20  22652335.266 0
G21  21427582.364 0
G25  22636045.636 0
G26  21477729.441 0
G29  20728926.168 0
G31  22432164.902 0
> 2018 03 15 18 48 49.6000000  0  9      
G04  20419365.526 0
G05  23340397.426 0
G16  23481832.595 0
G20  22652286.330 0
G21  21427551.801 0
G25  22636105.594 0
G26  21477688.550 0
G29  20728955.901 0
G31  22432208.611 0
> 2018 03 15 18 48 49.7000000  0  9      
G04  20419343.646 0
G05  23340411.557 0
G16  23481769.387 0
G20  22652237.395 0
G21  21427521.239 0
G25  22636165.552 0
G26  21477647.659 0
G29  20728985.633 0
G31  22432252.321 0
> 2018 03 15 18 48 49.8000000  0  9      
G04  20419321.768 0
G05  23340425.687 0
G16  23481706.180 0
G20  22652188.460 0
G21  21427490.677 0
G25  22636225.511 0
G26  21477606.770 0
G29  20729015.367 0
G31  22432296.033 0
> 2018 03 15 18 48 49.9000000  0  9      
G04  20419299.890 0
G05  23340439.819 0
G16  23481642.973 0
G20  22652139.526 0
G21  21427460.117 0
G25  22636285.470 0
G26  21477565.882 0
G29  20729045.100 0
G31  22432339.745 0
> 2018 03 15 18 48 50.0000000  0  9      
G04  20419278.014 0
G05  23340453.952 0
G16  23481579.768 0
G20  22652090.591 0
G21  21427429.557 0
G25  22636345.429 0
G26  21477524.996 0
G29  20729074.834 0
G31  22432383.459 0
> 2018 03 15 18 48 50.1000000  0  9      
G04  20419256.139 0
G05  23340468.086 0
G16  23481516.562 0
G20  22652041.658 0
G21  21427398.999 0
G25  22636405.388 0
G26  21477484.110 0
G29  20729104.568 0
G31  22432427.174 0
> 2018 03 15 18 48 50.2000000  0  9      
G04  20419234.265 0
G05  23340482.220 0
G16  23481453.358 0
G20  22651992.724 0
G21  21427368.441 0
G25  22636465.348 0
G26  21477443.225 0
G29  20729134.303 0
G31  22432470.891 0
> 2018 03 15 18 48 50.3000000  0  9      
G04  20419212.393 0
G05  23340496.355 0
G16  23481390.154 0
G20  22651943.791 0
G21  21427337.884 0
G25  22636525.308 0
G26  21477402.341 0
G29  20729164.038 0
G31  22432514.608 0
> 2018 03 15 18 48 50.4000000  0  9      
G04  20419190.521 0
G05  23340510.492 0
G16  23481326.952 0
G20  22651894.858 0
G21  21427307.329 0
G25  22636585.268 0
G26  21477361.459 0
G29  20729193.773 0
G31  22432558.327 0
> 2018 03 15 18 48 50.5000000  0  9      
G04  20419168.651 0
G05  23340524.629 0
G16  23481263.749 0
G20  22651845.926 0
G21  21427276.774 0
G25  22636645.229 0
G26  21477320.577 0
G29  20729223.509 0
G31  22432602.046 0
> 2018 03 15 18 48 50.6000000  0  9      
G04  20419146.783 0
G05  23340538.767 0
G16  23481200.548 0
G20  22651796.994 0
G21  21427246.220 0
G25  22636705.190 0
G26  21477279.697 0
G29  20729253.245 0
G31  22432645.767 0
> 2018 03 15 18 48 50.7000000  0  9      
G04  20419124.915 0
G05  23340552.906 0
G16  23481137.347 0
G20  22651748.063 0
G21  21427215.667 0
G25  22636765.151 0
G26  21477238.817 0
G29  20729282.982 0
G31  22432689.489 0
> 2018 03 15 18 48 50.8000000  0  9      
G04  20419103.048 0
G05  23340567.045 0
G16  23481074.147 0
G20  22651699.132 0
G21  21427185.115 0
G25  22636825.112 0
G26  21477197.939 0
G29  20729312.719 0
G31  22432733.213 0
> 2018 03 15 18 48 50.9000000  0  9      
G04  20419081.183 0
G05  23340581.186 0
G16  23481010.947 0
G20  22651650.201 0
G21  21427154.564 0
G25  22636885.074 0
G26  21477157.062 0
G29  20729342.456 0
G31  22432776.937 0
> 2018 03 15 18 48 51.0000000  0  9      
G04  20419059.319 0
G05  23340595.328 0
G16  23480947.749 0
G20  22651601.270 0
G21  21427124.014 0
G25  22636945.036 0
G26  21477116.186 0
G29  20729372.194 0
G31  22432820.663 0
> 2018 03 15 18 48 51.1000000  0  9      
G04  20419037.457 0
G05  23340609.470 0
G16  23480884.551 0
G20  22651552.340 0
G21  21427093.465 0
G25  22637004.998 0
G26  21477075.311 0
G29  20729401.932 0
G31  22432864.390 0
> 2018 03 15 18 48 51.2000000  0  9      
G04  20419015.595 0
G05  23340623.614 0
G16  23480821.354 0
G20  22651503.411 0
G21  21427062.916 0
G25  22637064.961 0
G26  21477034.437 0
G29  20729431.670 0
G31  22432908.118 0
> 2018 03 15 18 48 51.3000000  0  9      
G04  20418993.735 0
G05  23340637.758 0
G16  23480758.157 0
G20  22651454.481 0
G21  21427032.369 0
G25  22637124.923 0
G26  21476993.564 0
G29  20729461.409 0
G31  22432951.847 0
> 2018 03 15 18 48 51.4000000  0  9      
G04  20418971.876 0
G05  23340651.903 0
G16  23480694.961 0
G20  22651405.552 0
G21  21427001.823 0
G25  22637184.886 0
G26  21476952.692 0
G29  20729491.149 0
G31  22432995.577 0
> 2018 03 15 18 48 51.5000000  0  9      
G04  20418950.018 0
G05  23340666.049 0
G16  23480631.766 0
G20  22651356.624 0
G21  21426971.277 0
G25  22637244.850 0
G26  21476911.822 0
G29  20729520.888 0
G31  22433039.309 0
> 2018 03 15 18 48 51.6000000  0  9      
G04  20418928.161 0
G05  23340680.196 0
G16  23480568.572 0
G20  22651307.695 0
G21  21426940.733 0
G25  22637304.813 0
G26  21476870.952 0
G29  20729550.628 0
G31  22433083.041 0
> 2018 03 15 18 48 51.7000000  0  9      
G04  20418906.306 0
G05  23340694.344 0
G16  23480505.378 0
G20  22651258.767 0
G21  21426910.189 0
G25  22637364.777 0
G26  21476830.083 0
G29  20729580.369 0
G31  22433126.775 0
> 2018 03 15 18 48 51.8000000  0  9      
G04  20418884.452 0
G05  23340708.493 0
G16  23480442.185 0
G20  22651209.840 0
G21  21426879.646 0
G25  22637424.742 0
G26  21476789.216 0
G29  20729610.110 0
G31  22433170.510 0
> 2018 03 15 18 48 51.9000000  0  9      
G04  20418862.599 0
G05  23340722.642 0
G16  23480378.993 0
G20  22651160.913 0
G21  21426849.104 0
G25  22637484.706 0
G26  21476748.350 0
G29  20729639.851 0
G31  22433214.246 0
> 2018 03 15 18 48 52.0000000  0  9      
G04  20418840.747 0
G05  23340736.793 0
G16  23480315.801 0
G20  22651111.986 0
G21  21426818.564 0
G25  22637544.671 0
G26  21476707.484 0
G29  20729669.592 0
G31  22433257.983 0
> 2018 03 15 18 48 52.1000000  0  9      
G04  20418818.897 0
G05  23340750.944 0
G16  23480252.611 0
G20  22651063.060 0
G21  21426788.024 0
G25  22637604.636 0
G26  21476666.620 0
G29  20729699.334 0
G31  22433301.722 0
> 2018 03 15 18 48 52.2000000  0  9      
G04  20418797.047 0
G05  23340765.097 0
G16  23480189.421 0
G20  22651014.133 0
G21  21426757.485 0
G25  22637664.601 0
G26  21476625.757 0
G29  20729729.077 0
G31  22433345.461 0
> 2018 03 15 18 48 52.3000000  0  9      
G04  20418775.199 0
G05  23340779.250 0
G16  23480126.231 0
G20  22650965.208 0
G21  21426726.946 0
G25  22637724.566 0
G26  21476584.895 0
G29  20729758.820 0
G31  22433389.202 0
> 2018 03 15 18 48 52.4000000  0  9      
G04  20418753.353 0
G05  23340793.405 0
G16  23480063.043 0
G20  22650916.282 0
G21  21426696.409 0
G25  22637784.532 0
G26  21476544.034 0
G29  20729788.563 0
G31  22433432.944 0
> 2018 03 15 18 48 52.5000000  0  9      
G04  20418731.507 0
G05  23340807.560 0
G16  23479999.855 0
G20  22650867.357 0
G21  21426665.873 0
G25  22637844.498 0
G26  21476503.174 0
G29  20729818.306 0
G31  22433476.687 0
> 2018 03 15 18 48 52.6000000  0  9      
G04  20418709.663 0
G05  23340821.716 0
G16  23479936.668 0
G20  22650818.433 0
G21  21426635.337 0
G25  22637904.464 0
G26  21476462.316 0
G29  20729848.050 0
G31  22433520.431 0
> 2018 03 15 18 48 52.7000000  0  9      
G04  20418687.820 0
G05  23340835.873 0
G16  23479873.482 0
G20  22650769.508 0
G21  21426604.803 0
G25  22637964.431 0
G26  21476421.458 0
G29  20729877.795 0
G31  22433564.176 0
> 2018 03 15 18 48 52.8000000  0  9      
G04  20418665.978 0
G05  23340850.031 0
G16  23479810.296 0
G20  22650720.584 0
G21  21426574.269 0
G25  22638024.398 0
G26  21476380.602 0
G29  20729907.539 0
G31  22433607.922 0
> 2018 03 15 18 48 52.9000000  0  9      
G04  20418644.137 0
G05  23340864.190 0
G16  23479747.111 0
G20  22650671.661 0
G21  21426543.737 0
G25  22638084.365 0
G26  21476339.746 0
G29  20729937.285 0
G31  22433651.670 0
> 2018 03 15 18 48 53.0000000  0  9      
G04  20418622.298 0
G05  23340878.349 0
G16  23479683.927 0
G20  22650622.737 0
G21  21426513.205 0
G25  22638144.332 0
G26  21476298.892 0
G29  20729967.030 0
G31  22433695.419 0
> 2018 03 15 18 48 53.1000000  0  9      
G04  20418600.459 0
G05  23340892.510 0
G16  23479620.743 0
G20  22650573.815 0
G21  21426482.674 0
G25  22638204.299 0
G26  21476258.039 0
G29  20729996.776 0
G31  22433739.169 0
> 2018 03 15 18 48 53.2000000  0  9      
G04  20418578.622 0
G05  23340906.672 0
G16  23479557.561 0
G20  22650524.892 0
G21  21426452.144 0
G25  22638264.267 0
G26  21476217.187 0
G29  20730026.522 0
G31  22433782.919 0
> 2018 03 15 18 48 53.3000000  0  9      
G04  20418556.787 0
G05  23340920.834 0
G16  23479494.379 0
G20  22650475.970 0
G21  21426421.615 0
G25  22638324.235 0
G26  21476176.336 0
G29  20730056.269 0
G31  22433826.672 0
> 2018 03 15 18 48 53.4000000  0  9      
G04  20418534.952 0
G05  23340934.998 0
G16  23479431.198 0
G20  22650427.048 0
G21  21426391.087 0
G25  22638384.204 0
G26  21476135.486 0
G29  20730086.016 0
G31  22433870.425 0
> 2018 03 15 18 48 53.5000000  0  9      
G04  20418513.119 0
G05  23340949.162 0
G16  23479368.017 0
G20  22650378.126 0
G21  21426360.560 0
G25  22638444.172 0
G26  21476094.637 0
G29  20730115.764 0
G31  22433914.179 0
> 2018 03 15 18 48 53.6000000  0  9      
G04  20418491.287 0
G05  23340963.328 0
G16  23479304.837 0
G20  22650329.205 0
G21  21426330.033 0
G25  22638504.141 0
G26  21476053.789 0
G29  20730145.512 0
G31  22433957.935 0
> 2018 03 15 18 48 53.7000000  0  9      
G04  20418469.456 0
G05  23340977.494 0
G16  23479241.658 0
G20  22650280.284 0
G21  21426299.508 0
G25  22638564.110 0
G26  21476012.942 0
G29  20730175.260 0
G31  22434001.691 0
> 2018 03 15 18 48 53.8000000  0  9      
G04  20418447.627 0
G05  23340991.661 0
G16  23479178.480 0
G20  22650231.364 0
G21  21426268.983 0
G25  22638624.079 0
G26  21475972.097 0
G29  20730205.009 0
G31  22434045.449 0
> 2018 03 15 18 48 53.9000000  0  9      
G04  20418425.798 0
G05  23341005.829 0
G16  23479115.303 0
G20  22650182.444 0
G21  21426238.459 0
G25  22638684.049 0
G26  21475931.252 0
G29  20730234.758 0
G31  22434089.208 0
> 2018 03 15 18 48 54.0000000  0  9      
G04  20418403.971 0
G05  23341019.999 0
G16  23479052.126 0
G20  22650133.524 0
G21  21426207.937 0
G25  22638744.018 0
G26  21475890.409 0
G29  20730264.508 0
G31  22434132.968 0
> 2018 03 15 18 48 54.1000000  0  9      
G04  20418382.145 0
G05  23341034.169 0
G16  23478988.950 0
G20  22650084.604 0
G21  21426177.415 0
G25  22638803.988 0
G26  21475849.567 0
G29  20730294.258 0
G31  22434176.729 0
> 2018 03 15 18 48 54.2000000  0  9      
G04  20418360.321 0
G05  23341048.340 0
G16  23478925.775 0
G20  22650035.685 0
G21  21426146.894 0
G25  22638863.959 0
G26  21475808.726 0
G29  20730324.008 0
G31  22434220.491 0
> 2018 03 15 18 48 54.3000000  0  9      
G04  20418338.497 0
G05  23341062.512 0
G16  23478862.600 0
G20  22649986.766 0
G21  21426116.373 0
G25  22638923.929 0
G26  21475767.886 0
G29  20730353.759 0
G31  22434264.255 0
> 2018 03 15 18 48 54.4000000  0  9      
G04  20418316.675 0
G05  23341076.685 0
G16  23478799.426 0
G20  22649937.848 0
G21  21426085.854 0
G25  22638983.900 0
G26  21475727.047 0
G29  20730383.510 0
G31  22434308.019 0
> 2018 03 15 18 48 54.5000000  0  9      
G04  20418294.854 0
G05  23341090.858 0
G16  23478736.253 0
G20  22649888.930 0
G21  21426055.336 0
G25  22639043.871 0
G26  21475686.209 0
G29  20730413.262 0
G31  22434351.785 0
> 2018 03 15 18 48 54.6000000  0  9      
G04  20418273.035 0
G05  23341105.033 0
G16  23478673.081 0
G20  22649840.012 0
G21  21426024.818 0
G25  22639103.842 0
G26  21475645.372 0
G29  20730443.014 0
G31  22434395.552 0
> 2018 03 15 18 48 54.7000000  0  9      
G04  20418251.216 0
G05  23341119.209 0
G16  23478609.910 0
G20  22649791.094 0
G21  21425994.302 0
G25  22639163.813 0
G26  21475604.536 0
G29  20730472.767 0
G31  22434439.319 0
> 2018 03 15 18 48 54.8000000  0  9      
G04  20418229.399 0
G05  23341133.386 0
G16  23478546.739 0
G20  22649742.177 0
G21  21425963.786 0
G25  22639223.785 0
G26  21475563.702 0
G29  20730502.520 0
G31  22434483.088 0
> 2018 03 15 18 48 54.9000000  0  9      
G04  20418207.583 0
G05  23341147.563 0
G16  23478483.569 0
G20  22649693.261 0
G21  21425933.271 0
G25  22639283.757 0
G26  21475522.868 0
G29  20730532.273 0
G31  22434526.858 0
> 2018 03 15 18 48 55.0000000  0  9      
G04  20418185.768 0
G05  23341161.742 0
G16  23478420.400 0
G20  22649644.344 0
G21  21425902.757 0
G25  22639343.729 0
G26  21475482.036 0
G29  20730562.027 0
G31  22434570.630 0
> 2018 03 15 18 48 55.1000000  0  9      
G04  20418163.955 0
G05  23341175.922 0
G16  23478357.231 0
G20  22649595.428 0
G21  21425872.244 0
G25  22639403.701 0
G26  21475441.205 0
G29  20730591.781 0
G31  22434614.402 0
> 2018 03 15 18 48 55.2000000  0  9      
G04  20418142.142 0
G05  23341190.102 0
G16  23478294.063 0
G20  22649546.512 0
G21  21425841.732 0
G25  22639463.674 0
G26  21475400.375 0
G29  20730621.535 0
G31  22434658.175 0
> 2018 03 15 18 48 55.3000000  0  9      
G04  20418120.331 0
G05  23341204.284 0
G16  23478230.897 0
G20  22649497.597 0
G21  21425811.221 0
G25  22639523.647 0
G26  21475359.546 0
G29  20730651.290 0
G31  22434701.950 0
> 2018 03 15 18 48 55.4000000  0  9      
G04  20418098.522 0
G05  23341218.466 0
G16  23478167.730 0
G20  22649448.682 0
G21  21425780.710 0
G25  22639583.620 0
G26  21475318.718 0
G29  20730681.046 0
G31  22434745.725 0
> 2018 03 15 18 48 55.5000000  0  9      
G04  20418076.713 0
G05  23341232.650 0
G16  23478104.565 0
G20  22649399.767 0
G21  21425750.201 0
G25  22639643.593 0
G26  21475277.891 0
G29  20730710.802 0
G31  22434789.502 0
> 2018 03 15 18 48 55.6000000  0  9      
G04  20418054.906 0
G05  23341246.834 0
G16  23478041.400 0
G20  22649350.852 0
G21  21425719.692 0
G25  22639703.566 0
G26  21475237.065 0
G29  20730740.558 0
G31  22434833.280 0
> 2018 03 15 18 48 55.7000000  0  9      
G04  20418033.100 0
G05  23341261.020 0
G16  23477978.236 0
G20  22649301.938 0
G21  21425689.184 0
G25  22639763.540 0
G26  21475196.241 0
G29  20730770.314 0
G31  22434877.059 0
> 2018 03 15 18 48 55.8000000  0  9      
G04  20418011.295 0
G05  23341275.206 0
G16  23477915.073 0
G20  22649253.024 0
G21  21425658.677 0
G25  22639823.514 0
G26  21475155.417 0
G29  20730800.072 0
G31  22434920.839 0
> 2018 03 15 18 48 55.9000000  0  9      
G04  20417989.491 0
G05  23341289.394 0
G16  23477851.911 0
G20  22649204.111 0
G21  21425628.171 0
G25  22639883.488 0
G26  21475114.595 0
G29  20730829.829 0
G31  22434964.620 0
> 2018 03 15 18 48 56.0000000  0  9      
G04  20417967.689 0
G05  23341303.582 0
G16  23477788.749 0
G20  22649155.198 0
G21  21425597.666 0
G25  22639943.462 0
G26  21475073.774 0
G29  20730859.587 0
G31  22435008.402 0
> 2018 03 15 18 48 56.1000000  0  9      
G04  20417945.888 0
G05  23341317.771 0
G16  23477725.588 0
G20  22649106.285 0
G21  21425567.161 0
G25  22640003.437 0
G26  21475032.954 0
G29  20730889.345 0
G31  22435052.185 0
> 2018 03 15 18 48 56.2000000  0  9      
G04  20417924.088 0
G05  23341331.962 0
G16  23477662.428 0
G20  22649057.372 0
G21  21425536.658 0
G25  22640063.412 0
G26  21474992.135 0
G29  20730919.104 0
G31  22435095.970 0
> 2018 03 15 18 48 56.3000000  0  9      
G04  20417902.289 0
G05  23341346.153 0
G16  23477599.269 0
G20  22649008.460 0
G21  21425506.155 0
G25  22640123.387 0
G26  21474951.317 0
G29  20730948.863 0
G31  22435139.755 0
> 2018 03 15 18 48 56.4000000  0  9      
G04  20417880.492 0
G05  23341360.345 0
G16  23477536.110 0
G20  22648959.548 0
G21  21425475.653 0
G25  22640183.362 0
G26  21474910.500 0
G29  20730978.623 0
G31  22435183.542 0
> 2018 03 15 18 48 56.5000000  0  9      
G04  20417858.695 0
G05  23341374.539 0
G16  23477472.952 0
G20  22648910.637 0
G21  21425445.152 0
G25  22640243.337 0
G26  21474869.684 0
G29  20731008.383 0
G31  22435227.329 0
> 2018 03 15 18 48 56.6000000  0  9      
G04  20417836.900 0
G05  23341388.733 0
G16  23477409.795 0
G20  22648861.726 0
G21  21425414.652 0
G25  22640303.313 0
G26  21474828.870 0
G29  20731038.144 0
G31  22435271.118 0
> 2018 03 15 18 48 56.7000000  0  9      
G04  20417815.107 0
G05  23341402.928 0
G16  23477346.639 0
G20  22648812.815 0
G21  21425384.153 0
G25  22640363.289 0
G26  21474788.056 0
G29  20731067.905 0
G31  22435314.908 0
> 2018 03 15 18 48 56.8000000  0  9      
G04  20417793.314 0
G05  23341417.124 0
G16  23477283.484 0
G20  22648763.904 0
G21  21425353.654 0
G25  22640423.265 0
G26  21474747.244 0
G29  20731097.666 0
G31  22435358.699 0
> 2018 03 15 18 48 56.9000000  0  9      
G04  20417771.523 0
G05  23341431.322 0
G16  23477220.329 0
G20  22648714.994 0
G21  21425323.157 0
G25  22640483.241 0
G26  21474706.432 0
G29  20731127.428 0
G31  22435402.490 0
> 2018 03 15 18 48 57.0000000  0  9      
G04  20417749.733 0
G05  23341445.520 0
G16  23477157.175 0
G20  22648666.084 0
G21  21425292.660 0
G25  22640543.218 0
G26  21474665.622 0
G29  20731157.190 0
G31  22435446.284 0
> 2018 03 15 18 48 57.1000000  0  9      
G04  20417727.944 0
G05  23341459.719 0
G16  23477094.022 0
G20  22648617.174 0
G21  21425262.164 0
G25  22640603.194 0
G26  21474624.813 0
G29  20731186.953 0
G31  22435490.078 0
> 2018 03 15 18 48 57.2000000  0  9      
G04  20417706.157 0
G05  23341473.919 0
G16  23477030.869 0
G20  22648568.265 0
G21  21425231.669 0
G25  22640663.171 0
G26  21474584.005 0
G29  20731216.716 0
G31  22435533.873 0
> 2018 03 15 18 48 57.3000000  0  9      
G04  20417684.370 0
G05  23341488.121 0
G16  23476967.718 0
G20  22648519.356 0
G21  21425201.175 0
G25  22640723.148 0
G26  21474543.199 0
G29  20731246.479 0
G31  22435577.669 0
> 2018 03 15 18 48 57.4000000  0  9      
G04  20417662.585 0
G05  23341502.323 0
G16  23476904.567 0
G20  22648470.448 0
G21  21425170.682 0
G25  22640783.126 0
G26  21474502.393 0
G29  20731276.243 0
G31  22435621.466 0
> 2018 03 15 18 48 57.5000000  0  9      
G04  20417640.801 0
G05  23341516.526 0
G16  23476841.417 0
G20  22648421.539 0
G21  21425140.189 0
G25  22640843.103 0
G26  21474461.588 0
G29  20731306.008 0
G31  22435665.265 0
> 2018 03 15 18 48 57.6000000  0  9      
G04  20417619.019 0
G05  23341530.731 0
G16  23476778.267 0
G20  22648372.631 0
G21  21425109.698 0
G25  22640903.081 0
G26  21474420.785 0
G29  20731335.773 0
G31  22435709.064 0
> 2018 03 15 18 48 57.7000000  0  9      
G04  20417597.237 0
G05  23341544.936 0
G16  23476715.119 0
G20  22648323.724 0
G21  21425079.207 0
G25  22640963.059 0
G26  21474379.982 0
G29  20731365.538 0
G31  22435752.865 0
> 2018 03 15 18 48 57.8000000  0  9      
G04  20417575.457 0
G05  23341559.142 0
G16  23476651.971 0
G20  22648274.816 0
G21  21425048.717 0
G25  22641023.037 0
G26  21474339.181 0
G29  20731395.304 0
G31  22435796.666 0
> 2018 03 15 18 48 57.9000000  0  9      
G04  20417553.678 0
G05  23341573.349 0
G16  23476588.824 0
G20  22648225.909 0
G21  21425018.228 0
G25  22641083.015 0
G26  21474298.381 0
G29  20731425.070 0
G31  22435840.469 0
> 2018 03 15 18 48 58.0000000  0  9      
G04  20417531.901 0
G05  23341587.558 0
G16  23476525.678 0
G20  22648177.003 0
G21  21424987.740 0
G25  22641142.994 0
G26  21474257.582 0
G29  20731454.836 0
G31  22435884.272 0
> 2018 03 15 18 48 58.1000000  0  9      
G04  20417510.124 0
G05  23341601.767 0
G16  23476462.533 0
G20  22648128.096 0
G21  21424957.252 0
G25  22641202.973 0
G26  21474216.784 0
G29  20731484.603 0
G31  22435928.077 0
> 2018 03 15 18 48 58.2000000  0  9      
G04  20417488.349 0
G05  23341615.978 0
G16  23476399.388 0
G20  22648079.190 0
G21  21424926.766 0
G25  22641262.951 0
G26  21474175.987 0
G29  20731514.371 0
G31  22435971.883 0
> 2018 03 15 18 48 58.3000000  0  9      
G04  20417466.575 0
G05  23341630.189 0
G16  23476336.244 0
G20  22648030.284 0
G21  21424896.280 0
G25  22641322.931 0
G26  21474135.192 0
G29  20731544.139 0
G31  22436015.690 0
> 2018 03 15 18 48 58.4000000  0  9      
G04  20417444.803 0
G05  23341644.401 0
G16  23476273.101 0
G20  22647981.379 0
G21  21424865.795 0
G25  22641382.910 0
G26  21474094.397 0
G29  20731573.907 0
G31  22436059.498 0
> 2018 03 15 18 48 58.5000000  0  9      
G04  20417423.031 0
G05  23341658.615 0
G16  23476209.959 0
G20  22647932.474 0
G21  21424835.311 0
G25  22641442.890 0
G26  21474053.604 0
G29  20731603.676 0
G31  22436103.307 0
> 2018 03 15 18 48 58.6000000  0  9      
G04  20417401.261 0
G05  23341672.829 0
G16  23476146.817 0
G20  22647883.569 0
G21  21424804.827 0
G25  22641502.869 0
G26  21474012.811 0
G29  20731633.446 0
G31  22436147.117 0
> 2018 03 15 18 48 58.7000000  0  9      
G04  20417379.492 0
G05  23341687.045 0
G16  23476083.676 0
G20  22647834.664 0
G21  21424774.345 0
G25  22641562.849 0
G26  21473972.020 0
G29  20731663.215 0
G31  22436190.928 0
> 2018 03 15 18 48 58.8000000  0  9      
G04  20417357.724 0
G05  23341701.262 0
G16  23476020.536 0
G20  22647785.760 0
G21  21424743.863 0
G25  22641622.829 0
G26  21473931.230 0
G29  20731692.986 0
G31  22436234.740 0
> 2018 03 15 18 48 58.9000000  0  9      
G04  20417335.958 0
G05  23341715.479 0
G16  23475957.397 0
G20  22647736.856 0
G21  21424713.383 0
G25  22641682.810 0
G26  21473890.441 0
G29  20731722.756 0
G31  22436278.553 0
> 2018 03 15 18 48 59.0000000  0  9      
G04  20417314.193 0
G05  23341729.698 0
G16  23475894.259 0
G20  22647687.953 0
G21  21424682.903 0
G25  22641742.790 0
G26  21473849.653 0
G29  20731752.527 0
G31  22436322.367 0
> 2018 03 15 18 48 59.1000000  0  9      
G04  20417292.429 0
G05  23341743.917 0
G16  23475831.121 0
G20  22647639.050 0
G21  21424652.423 0
G25  22641802.771 0
G26  21473808.866 0
G29  20731782.299 0
G31  22436366.182 0
> 2018 03 15 18 48 59.2000000  0  9      
G04  20417270.666 0
G05  23341758.138 0
G16  23475767.984 0
G20  22647590.147 0
G21  21424621.945 0
G25  22641862.752 0
G26  21473768.081 0
G29  20731812.071 0
G31  22436409.998 0
> 2018 03 15 18 48 59.3000000  0  9      
G04  20417248.904 0
G05  23341772.360 0
G16  23475704.848 0
G20  22647541.244 0
G21  21424591.468 0
G25  22641922.733 0
G26  21473727.296 0
G29  20731841.843 0
G31  22436453.816 0
> 2018 03 15 18 48 59.4000000  0  9      
G04  20417227.144 0
G05  23341786.583 0
G16  23475641.713 0
G20  22647492.342 0
G21  21424560.991 0
G25  22641982.714 0
G26  21473686.513 0
G29  20731871.616 0
G31  22436497.634 0
> 2018 03 15 18 48 59.5000000  0  9      
G04  20417205.385 0
G05  23341800.807 0
G16  23475578.578 0
G20  22647443.440 0
G21  21424530.515 0
G25  22642042.696 0
G26  21473645.731 0
G29  20731901.390 0
G31  22436541.453 0
> 2018 03 15 18 48 59.6000000  0  9      
G04  20417183.627 0
G05  23341815.032 0
G16  23475515.444 0
G20  22647394.538 0
G21  21424500.040 0
G25  22642102.677 0
G26  21473604.949 0
G29  20731931.164 0
G31  22436585.274 0
> 2018 03 15 18 48 59.7000000  0  9      
G04  20417161.871 0
G05  23341829.258 0
G16  23475452.311 0
G20  22647345.637 0
G21  21424469.566 0
G25  22642162.659 0
G26  21473564.169 0
G29  20731960.938 0
G31  22436629.095 0
> 2018 03 15 18 48 59.8000000  0  9      
G04  20417140.115 0
G05  23341843.485 0
G16  23475389.179 0
G20  22647296.736 0
G21  21424439.092 0
G25  22642222.641 0
G26  21473523.390 0
G29  20731990.713 0
G31  22436672.917 0
> 2018 03 15 18 48 59.9000000  0  9      
G04  20417118.361 0
G05  23341857.713 0
G16  23475326.048 0
G20  22647247.835 0
G21  21424408.620 0
G25  22642282.624 0
G26  21473482.613 0
G29  20732020.488 0
G31  22436716.741 0
> 2018 03 15 18 49  0.0000000  0  9      
G04  20417096.608 0
G05  23341871.942 0
G16  23475262.917 0
G20  22647198.934 0
G21  21424378.148 0
G25  22642342.606 0
G26  21473441.836 0
G29  20732050.264 0
G31  22436760.565 0
> 2018 03 15 18 49  0.1000000  0  9      
G04  20417074.857 0
G05  23341886.172 0
G16  23475199.787 0
G20  22647150.034 0
G21  21424347.677 0
G25  22642402.589 0
G26  21473401.060 0
G29  20732080.040 0
G31  22436804.391 0
> 2018 03 15 18 49  0.2000000  0  9      
G04  20417053.106 0
G05  23341900.403 0
G16  23475136.658 0
G20  22647101.135 0
G21  21424317.207 0
G25  22642462.571 0
G26  21473360.286 0
G29  20732109.817 0
G31  22436848.217 0
> 2018 03 15 18 49  0.3000000  0  9      
G04  20417031.357 0
G05  23341914.636 0
G16  23475073.530 0
G20  22647052.235 0
G21  21424286.737 0
G25  22642522.554 0
G26  21473319.512 0
G29  20732139.594 0
G31  22436892.045 0
> 2018 03 15 18 49  0.4000000  0  9      
G04  20417009.609 0
G05  23341928.869 0
G16  23475010.403 0
G20  22647003.336 0
G21  21424256.269 0
G25  22642582.538 0
G26  21473278.740 0
G29  20732169.371 0
G31  22436935.873 0
> 2018 03 15 18 49  0.5000000  0  9      
G04  20416987.863 0
G05  23341943.103 0
G16  23474947.276 0
G20  22646954.437 0
G21  21424225.801 0
G25  22642642.521 0
G26  21473237.969 0
G29  20732199.149 0
G31  22436979.703 0
> 2018 03 15 18 49  0.6000000  0  9      
G04  20416966.117 0
G05  23341957.339 0
G16  23474884.150 0
G20  22646905.538 0
G21  21424195.334 0
G25  22642702.505 0
G26  21473197.199 0
G29  20732228.928 0
G31  22437023.533 0
> 2018 03 15 18 49  0.7000000  0  9      
G04  20416944.373 0
G05  23341971.576 0
G16  23474821.025 0
G20  22646856.640 0
G21  21424164.868 0
G25  22642762.488 0
G26  21473156.430 0
G29  20732258.707 0
G31  22437067.365 0
> 2018 03 15 18 49  0.8000000  0  9      
G04  20416922.630 0
G05  23341985.813 0
G16  23474757.901 0
G20  22646807.742 0
G21  21424134.402 0
G25  22642822.472 0
G26  21473115.662 0
G29  20732288.487 0
G31  22437111.198 0
> 2018 03 15 18 49  0.9000000  0  9      
G04  20416900.888 0
G05  23342000.052 0
G16  23474694.777 0
G20  22646758.845 0
G21  21424103.938 0
G25  22642882.456 0
G26  21473074.896 0
G29  20732318.266 0
G31  22437155.031 0
> 2018 03 15 18 49  1.0000000  0  9      
G04  20416879.148 0
G05  23342014.292 0
G16  23474631.654 0
G20  22646709.947 0
G21  21424073.474 0
G25  22642942.441 0
G26  21473034.130 0
G29  20732348.047 0
G31  22437198.866 0
> 2018 03 15 18 49  1.1000000  0  9      
G04  20416857.408 0
G05  23342028.533 0
G16  23474568.532 0
G20  22646661.050 0
G21  21424043.011 0
G25  22643002.425 0
G26  21472993.366 0
G29  20732377.828 0
G31  22437242.701 0
> 2018 03 15 18 49  1.2000000  0  9      
G04  20416835.670 0
G05  23342042.775 0
G16  23474505.411 0
G20  22646612.154 0
G21  21424012.549 0
G25  22643062.410 0
G26  21472952.602 0
G29  20732407.609 0
G31  22437286.538 0
> 2018 03 15 18 49  1.3000000  0  9      
G04  20416813.934 0
G05  23342057.018 0
G16  23474442.291 0
G20  22646563.257 0
G21  21423982.087 0
G25  22643122.395 0
G26  21472911.840 0
G29  20732437.391 0
G31  22437330.376 0
> 2018 03 15 18 49  1.4000000  0  9      
G04  20416792.198 0
G05  23342071.262 0
G16  23474379.171 0
G20  22646514.361 0
G21  21423951.627 0
G25  22643182.380 0
G26  21472871.079 0
G29  20732467.173 0
G31  22437374.214 0
> 2018 03 15 18 49  1.5000000  0  9      
G04  20416770.464 0
G05  23342085.507 0
G16  23474316.052 0
G20  22646465.466 0
G21  21423921.167 0
G25  22643242.365 0
G26  21472830.319 0
G29  20732496.956 0
G31  22437418.054 0
> 2018 03 15 18 49  1.6000000  0  9      
G04  20416748.731 0
G05  23342099.754 0
G16  23474252.934 0
G20  22646416.570 0
G21  21423890.708 0
G25  22643302.350 0
G26  21472789.560 0
G29  20732526.740 0
G31  22437461.894 0
> 2018 03 15 18 49  1.7000000  0  9      
G04  20416726.999 0
G05  23342114.001 0
G16  23474189.817 0
G20  22646367.675 0
G21  21423860.250 0
G25  22643362.336 0
G26  21472748.803 0
G29  20732556.523 0
G31  22437505.736 0
> 2018 03 15 18 49  1.8000000  0  9      
G04  20416705.268 0
G05  23342128.250 0
G16  23474126.701 0
G20  22646318.780 0
G21  21423829.792 0
G25  22643422.321 0
G26  21472708.046 0
G29  20732586.308 0
G31  22437549.578 0
> 2018 03 15 18 49  1.9000000  0  9      
G04  20416683.539 0
G05  23342142.500 0
G16  23474063.585 0
G20  22646269.886 0
G21  21423799.336 0
G25  22643482.307 0
G26  21472667.290 0
G29  20732616.092 0
G31  22437593.422 0
> 2018 03 15 18 49  2.0000000  0  9      
G04  20416661.811 0
G05  23342156.750 0
G16  23474000.470 0
G20  22646220.992 0
G21  21423768.880 0
G25  22643542.293 0
G26  21472626.536 0
G29  20732645.878 0
G31  22437637.266 0
> 2018 03 15 18 49  2.1000000  0  9      
G04  20416640.084 0
G05  23342171.002 0
G16  23473937.356 0
G20  22646172.098 0
G21  21423738.425 0
G25  22643602.280 0
G26  21472585.783 0
G29  20732675.663 0
G31  22437681.112 0
> 2018 03 15 18 49  2.2000000  0  9      
G04  20416618.358 0
G05  23342185.255 0
G16  23473874.243 0
G20  22646123.204 0
G21  21423707.970 0
G25  22643662.266 0
G26  21472545.031 0
G29  20732705.450 0
G31  22437724.958 0
> 2018 03 15 18 49  2.3000000  0  9      
G04  20416596.634 0
G05  23342199.509 0
G16  23473811.130 0
G20  22646074.311 0
G21  21423677.517 0
G25  22643722.253 0
G26  21472504.280 0
G29  20732735.236 0
G31  22437768.806 0
> 2018 03 15 18 49  2.4000000  0  9      
G04  20416574.911 0
G05  23342213.764 0
G16  23473748.019 0
G20  22646025.418 0
G21  21423647.064 0
G25  22643782.240 0
G26  21472463.530 0
G29  20732765.023 0
G31  22437812.654 0
> 2018 03 15 18 49  2.5000000  0  9      
G04  20416553.189 0
G05  23342228.021 0
G16  23473684.908 0
G20  22645976.525 0
G21  21423616.612 0
G25  22643842.226 0
G26  21472422.781 0
G29  20732794.811 0
G31  22437856.504 0
> 2018 03 15 18 49  2.6000000  0  9      
G04  20416531.468 0
G05  23342242.278 0
G16  23473621.797 0
G20  22645927.633 0
G21  21423586.161 0
G25  22643902.214 0
G26  21472382.033 0
G29  20732824.599 0
G31  22437900.354 0
> 2018 03 15 18 49  2.7000000  0  9      
G04  20416509.749 0
G05  23342256.537 0
G16  23473558.688 0
G20  22645878.741 0
G21  21423555.710 0
G25  22643962.201 0
G26  21472341.286 0
G29  20732854.388 0
G31  22437944.205 0
> 2018 03 15 18 49  2.8000000  0  9      
G04  20416488.030 0
G05  23342270.796 0
G16  23473495.580 0
G20  22645829.849 0
G21  21423525.261 0
G25  22644022.188 0
G26  21472300.541 0
G29  20732884.177 0
G31  22437988.058 0
> 2018 03 15 18 49  2.9000000  0  9      
G04  20416466.313 0
G05  23342285.057 0
G16  23473432.472 0
G20  22645780.958 0
G21  21423494.812 0
G25  22644082.176 0
G26  21472259.797 0
G29  20732913.967 0
G31  22438031.911 0
> 2018 03 15 18 49  3.0000000  0  9      
G04  20416444.598 0
G05  23342299.319 0
G16  23473369.365 0
G20  22645732.067 0
G21  21423464.364 0
G25  22644142.164 0
G26  21472219.053 0
G29  20732943.757 0
G31  22438075.765 0
> 2018 03 15 18 49  3.1000000  0  9      
G04  20416422.883 0
G05  23342313.582 0
G16  23473306.259 0
G20  22645683.176 0
G21  21423433.916 0
G25  22644202.152 0
G26  21472178.311 0
G29  20732973.548 0
G31  22438119.620 0
> 2018 03 15 18 49  3.2000000  0  9      
G04  20416401.170 0
G05  23342327.846 0
G16  23473243.153 0
G20  22645634.286 0
G21  21423403.470 0
G25  22644262.140 0
G26  21472137.570 0
G29  20733003.339 0
G31  22438163.476 0
> 2018 03 15 18 49  3.3000000  0  9      
G04  20416379.458 0
G05  23342342.112 0
G16  23473180.048 0
G20  22645585.396 0
G21  21423373.024 0
G25  22644322.129 0
G26  21472096.830 0
G29  20733033.131 0
G31  22438207.334 0
> 2018 03 15 18 49  3.4000000  0  9      
G04  20416357.747 0
G05  23342356.378 0
G16  23473116.945 0
G20  22645536.506 0
G21  21423342.579 0
G25  22644382.117 0
G26  21472056.091 0
G29  20733062.923 0
G31  22438251.192 0
> 2018 03 15 18 49  3.5000000  0  9      
G04  20416336.037 0
G05  23342370.646 0
G16  23473053.842 0
G20  22645487.616 0
G21  21423312.135 0
G25  22644442.106 0
G26  21472015.354 0
G29  20733092.715 0
G31  22438295.051 0
> 2018 03 15 18 49  3.6000000  0  9      
G04  20416314.329 0
G05  23342384.914 0
G16  23472990.739 0
G20  22645438.727 0
G21  21423281.691 0
G25  22644502.095 0
G26  21471974.617 0
G29  20733122.509 0
G31  22438338.911 0
> 2018 03 15 18 49  3.7000000  0  9      
G04  20416292.622 0
G05  23342399.184 0
G16  23472927.638 0
G20  22645389.838 0
G21  21423251.248 0
G25  22644562.084 0
G26  21471933.882 0
G29  20733152.302 0
G31  22438382.772 0
> 2018 03 15 18 49  3.8000000  0  9      
G04  20416270.916 0
G05  23342413.455 0
G16  23472864.537 0
G20  22645340.950 0
G21  21423220.806 0
G25  22644622.073 0
G26  21471893.147 0
G29  20733182.097 0
G31  22438426.634 0
> 2018 03 15 18 49  3.9000000  0  9      
G04  20416249.211 0
G05  23342427.727 0
G16  23472801.437 0
G20  22645292.061 0
G21  21423190.365 0
G25  22644682.062 0
G26  21471852.414 0
G29  20733211.891 0
G31  22438470.496 0
> 2018 03 15 18 49  4.0000000  0  9      
G04  20416227.508 0
G05  23342442.001 0
G16  23472738.338 0
G20  22645243.174 0
G21  21423159.925 0
G25  22644742.052 0
G26  21471811.682 0
G29  20733241.686 0
G31  22438514.360 0
> 2018 03 15 18 49  4.1000000  0  9      
G04  20416205.805 0
G05  23342456.275 0
G16  23472675.240 0
G20  22645194.286 0
G21  21423129.485 0
G25  22644802.042 0
G26  21471770.951 0
G29  20733271.482 0
G31  22438558.225 0
> 2018 03 15 18 49  4.2000000  0  9      
G04  20416184.104 0
G05  23342470.551 0
G16  23472612.142 0
G20  22645145.399 0
G21  21423099.046 0
G25  22644862.032 0
G26  21471730.221 0
G29  20733301.278 0
G31  22438602.091 0
> 2018 03 15 18 49  4.3000000  0  9      
G04  20416162.405 0
G05  23342484.827 0
G16  23472549.045 0
G20  22645096.512 0
G21  21423068.608 0
G25  22644922.022 0
G26  21471689.492 0
G29  20733331.075 0
G31  22438645.957 0
> 2018 03 15 18 49  4.4000000  0  9      
G04  20416140.706 0
G05  23342499.105 0
G16  23472485.949 0
G20  22645047.625 0
G21  21423038.170 0
G25  22644982.012 0
G26  21471648.764 0
G29  20733360.872 0
G31  22438689.825 0
> 2018 03 15 18 49  4.5000000  0  9      
G04  20416119.009 0
G05  23342513.384 0
G16  23472422.854 0
G20  22644998.739 0
G21  21423007.734 0
G25  22645042.002 0
G26  21471608.038 0
G29  20733390.670 0
G31  22438733.693 0
> 2018 03 15 18 49  4.6000000  0  9      
G04  20416097.313 0
G05  23342527.665 0
G16  23472359.760 0
G20  22644949.853 0
G21  21422977.298 0
G25  22645101.993 0
G26  21471567.312 0
G29  20733420.469 0
G31  22438777.563 0
> 2018 03 15 18 49  4.7000000  0  9      
G04  20416075.618 0
G05  23342541.946 0
G16  23472296.666 0
G20  22644900.967 0
G21  21422946.862 0
G25  22645161.984 0
G26  21471526.588 0
G29  20733450.267 0
G31  22438821.433 0
> 2018 03 15 18 49  4.8000000  0  9      
G04  20416053.924 0
G05  23342556.229 0
G16  23472233.573 0
G20  22644852.082 0
G21  21422916.428 0
G25  22645221.975 0
G26  21471485.865 0
G29  20733480.067 0
G31  22438865.304 0
> 2018 03 15 18 49  4.9000000  0  9      
G04  20416032.232 0
G05  23342570.512 0
G16  23472170.481 0
G20  22644803.197 0
G21  21422885.994 0
G25  22645281.966 0
G26  21471445.142 0
G29  20733509.867 0
G31  22438909.176 0
> 2018 03 15 18 49  5.0000000  0  9      
G04  20416010.541 0
G05  23342584.797 0
G16  23472107.390 0
G20  22644754.312 0
G21  21422855.561 0
G25  22645341.957 0
G26  21471404.421 0
G29  20733539.667 0
G31  22438953.050 0
> 2018 03 15 18 49  5.1000000  0  9      
G04  20415988.851 0
G05  23342599.083 0
G16  23472044.299 0
G20  22644705.427 0
G21  21422825.129 0
G25  22645401.949 0
G26  21471363.701 0
G29  20733569.468 0
G31  22438996.924 0
> 2018 03 15 18 49  5.2000000  0  9      
G04  20415967.162 0
G05  23342613.370 0
G16  23471981.210 0
G20  22644656.543 0
G21  21422794.698 0
G25  22645461.940 0
G26  21471322.982 0
G29  20733599.269 0
G31  22439040.799 0
> 2018 03 15 18 49  5.3000000  0  9      
G04  20415945.475 0
G05  23342627.659 0
G16  23471918.121 0
G20  22644607.659 0
G21  21422764.267 0
G25  22645521.932 0
G26  21471282.265 0
G29  20733629.071 0
G31  22439084.674 0
> 2018 03 15 18 49  5.4000000  0  9      
G04  20415923.788 0
G05  23342641.948 0
G16  23471855.032 0
G20  22644558.776 0
G21  21422733.837 0
G25  22645581.924 0
G26  21471241.548 0
G29  20733658.874 0
G31  22439128.551 0
> 2018 03 15 18 49  5.5000000  0  9      
G04  20415902.103 0
G05  23342656.239 0
G16  23471791.945 0
G20  22644509.893 0
G21  21422703.408 0
G25  22645641.916 0
G26  21471200.833 0
G29  20733688.677 0
G31  22439172.429 0
> 2018 03 15 18 49  5.6000000  0  9      
G04  20415880.420 0
G05  23342670.531 0
G16  23471728.858 0
G20  22644461.010 0
G21  21422672.979 0
G25  22645701.909 0
G26  21471160.118 0
G29  20733718.480 0
G31  22439216.308 0
> 2018 03 15 18 49  5.7000000  0  9      
G04  20415858.737 0
G05  23342684.824 0
G16  23471665.773 0
G20  22644412.128 0
G21  21422642.551 0
G25  22645761.901 0
G26  21471119.405 0
G29  20733748.284 0
G31  22439260.187 0
> 2018 03 15 18 49  5.8000000  0  9      
G04  20415837.056 0
G05  23342699.119 0
G16  23471602.688 0
G20  22644363.245 0
G21  21422612.124 0
G25  22645821.894 0
G26  21471078.693 0
G29  20733778.089 0
G31  22439304.068 0
> 2018 03 15 18 49  5.9000000  0  9      
G04  20415815.376 0
G05  23342713.414 0
G16  23471539.603 0
G20  22644314.363 0
G21  21422581.698 0
G25  22645881.886 0
G26  21471037.981 0
G29  20733807.894 0
G31  22439347.949 0
> 2018 03 15 18 49  6.0000000  0  9      
G04  20415793.697 0
G05  23342727.711 0
G16  23471476.520 0
G20  22644265.482 0
G21  21422551.272 0
G25  22645941.879 0
G26  21470997.271 0
G29  20733837.700 0
G31  22439391.831 0
> 2018 03 15 18 49  6.1000000  0  9      
G04  20415772.019 0
G05  23342742.009 0
G16  23471413.437 0
G20  22644216.601 0
G21  21422520.848 0
G25  22646001.873 0
G26  21470956.562 0
G29  20733867.506 0
G31  22439435.714 0
> 2018 03 15 18 49  6.2000000  0  9      
G04  20415750.343 0
G05  23342756.308 0
G16  23471350.355 0
G20  22644167.720 0
G21  21422490.424 0
G25  22646061.866 0
G26  21470915.855 0
G29  20733897.313 0
G31  22439479.598 0
> 2018 03 15 18 49  6.3000000  0  9      
G04  20415728.668 0
G05  23342770.608 0
G16  23471287.274 0
G20  22644118.839 0
G21  21422460.000 0
G25  22646121.859 0
G26  21470875.148 0
G29  20733927.120 0
G31  22439523.483 0
> 2018 03 15 18 49  6.4000000  0  9      
G04  20415706.994 0
G05  23342784.910 0
G16  23471224.194 0
G20  22644069.959 0
G21  21422429.578 0
G25  22646181.853 0
G26  21470834.442 0
G29  20733956.928 0
G31  22439567.369 0
> 2018 03 15 18 49  6.5000000  0  9      
G04  20415685.321 0
G05  23342799.212 0
G16  23471161.114 0
G20  22644021.079 0
G21  21422399.156 0
G25  22646241.847 0
G26  21470793.738 0
G29  20733986.736 0
G31  22439611.256 0
> 2018 03 15 18 49  6.6000000  0  9      
G04  20415663.649 0
G05  23342813.516 0
G16  23471098.035 0
G20  22643972.200 0
G21  21422368.734 0
G25  22646301.841 0
G26  21470753.034 0
G29  20734016.545 0
G31  22439655.144 0
> 2018 03 15 18 49  6.7000000  0  9      
G04  20415641.979 0
G05  23342827.821 0
G16  23471034.957 0
G20  22643923.320 0
G21  21422338.314 0
G25  22646361.835 0
G26  21470712.332 0
G29  20734046.354 0
G31  22439699.032 0
> 2018 03 15 18 49  6.8000000  0  9      
G04  20415620.310 0
G05  23342842.128 0
G16  23470971.880 0
G20  22643874.441 0
G21  21422307.894 0
G25  22646421.830 0
G26  21470671.631 0
G29  20734076.164 0
G31  22439742.922 0
> 2018 03 15 18 49  6.9000000  0  9      
G04  20415598.642 0
G05  23342856.435 0
G16  23470908.804 0
G20  22643825.563 0
G21  21422277.475 0
G25  22646481.824 0
G26  21470630.931 0
G29  20734105.975 0
G31  22439786.812 0
> 2018 03 15 18 49  7.0000000  0  9      
G04  20415576.975 0
G05  23342870.744 0
G16  23470845.728 0
G20  22643776.684 0
G21  21422247.057 0
G25  22646541.819 0
G26  21470590.232 0
G29  20734135.786 0
G31  22439830.703 0
> 2018 03 15 18 49  7.1000000  0  9      
G04  20415555.310 0
G05  23342885.054 0
G16  23470782.653 0
G20  22643727.807 0
G21  21422216.639 0
G25  22646601.814 0
G26  21470549.534 0
G29  20734165.598 0
G31  22439874.595 0
> 2018 03 15 18 49  7.2000000  0  9      
G04  20415533.646 0
G05  23342899.365 0
G16  23470719.579 0
G20  22643678.929 0
G21  21422186.222 0
G25  22646661.809 0
G26  21470508.837 0
G29  20734195.410 0
G31  22439918.488 0
> 2018 03 15 18 49  7.3000000  0  9      
G04  20415511.983 0
G05  23342913.678 0
G16  23470656.506 0
G20  22643630.052 0
G21  21422155.806 0
G25  22646721.804 0
G26  21470468.141 0
G29  20734225.222 0
G31  22439962.382 0
> 2018 03 15 18 49  7.4000000  0  9      
G04  20415490.321 0
G05  23342927.991 0
G16  23470593.433 0
G20  22643581.175 0
G21  21422125.391 0
G25  22646781.799 0
G26  21470427.447 0
G29  20734255.036 0
G31  22440006.277 0
> 2018 03 15 18 49  7.5000000  0  9      
G04  20415468.660 0
G05  23342942.306 0
G16  23470530.361 0
G20  22643532.298 0
G21  21422094.976 0
G25  22646841.795 0
G26  21470386.753 0
G29  20734284.849 0
G31  22440050.172 0
> 2018 03 15 18 49  7.6000000  0  9      
G04  20415447.001 0
G05  23342956.622 0
G16  23470467.290 0
G20  22643483.422 0
G21  21422064.562 0
G25  22646901.790 0
G26  21470346.061 0
G29  20734314.664 0
G31  22440094.069 0
> 2018 03 15 18 49  7.7000000  0  9      
G04  20415425.343 0
G05  23342970.940 0
G16  23470404.220 0
G20  22643434.546 0
G21  21422034.149 0
G25  22646961.786 0
G26  21470305.369 0
G29  20734344.479 0
G31  22440137.966 0
> 2018 03 15 18 49  7.8000000  0  9      
G04  20415403.686 0
G05  23342985.258 0
G16  23470341.150 0
G20  22643385.670 0
G21  21422003.736 0
G25  22647021.782 0
G26  21470264.679 0
G29  20734374.294 0
G31  22440181.864 0
> 2018 03 15 18 49  7.9000000  0  9      
G04  20415382.030 0
G05  23342999.578 0
G16  23470278.082 0
G20  22643336.795 0
G21  21421973.325 0
G25  22647081.779 0
G26  21470223.990 0
G29  20734404.110 0
G31  22440225.764 0
> 2018 03 15 18 49  8.0000000  0  9      
G04  20415360.376 0
G05  23343013.899 0
G16  23470215.014 0
G20  22643287.920 0
G21  21421942.913 0
G25  22647141.775 0
G26  21470183.302 0
G29  20734433.927 0
G31  22440269.663 0
> 2018 03 15 18 49  8.1000000  0  9      
G04  20415338.723 0
G05  23343028.221 0
G16  23470151.946 0
G20  22643239.045 0
G21  21421912.503 0
G25  22647201.772 0
G26  21470142.615 0
G29  20734463.744 0
G31  22440313.564 0
> 2018 03 15 18 49  8.2000000  0  9      
G04  20415317.071 0
G05  23343042.545 0
G16  23470088.880 0
G20  22643190.171 0
G21  21421882.093 0
G25  22647261.768 0
G26  21470101.929 0
G29  20734493.562 0
G31  22440357.466 0
> 2018 03 15 18 49  8.3000000  0  9      
G04  20415295.420 0
G05  23343056.869 0
G16  23470025.814 0
G20  22643141.297 0
G21  21421851.684 0
G25  22647321.765 0
G26  21470061.244 0
G29  20734523.380 0
G31  22440401.368 0
> 2018 03 15 18 49  8.4000000  0  9      
G04  20415273.770 0
G05  23343071.196 0
G16  23469962.749 0
G20  22643092.423 0
G21  21421821.276 0
G25  22647381.762 0
G26  21470020.560 0
G29  20734553.199 0
G31  22440445.272 0
> 2018 03 15 18 49  8.5000000  0  9      
G04  20415252.122 0
G05  23343085.523 0
G16  23469899.685 0
G20  22643043.550 0
G21  21421790.868 0
G25  22647441.760 0
G26  21469979.878 0
G29  20734583.018 0
G31  22440489.176 0
> 2018 03 15 18 49  8.6000000  0  9      
G04  20415230.475 0
G05  23343099.851 0
G16  23469836.622 0
G20  22642994.677 0
G21  21421760.462 0
G25  22647501.757 0
G26  21469939.196 0
G29  20734612.838 0
G31  22440533.081 0
> 2018 03 15 18 49  8.7000000  0  9      
G04  20415208.829 0
G05  23343114.181 0
G16  23469773.559 0
G20  22642945.805 0
G21  21421730.055 0
G25  22647561.755 0
G26  21469898.516 0
G29  20734642.659 0
G31  22440576.987 0
> 2018 03 15 18 49  8.8000000  0  9      
G04  20415187.184 0
G05  23343128.512 0
G16  23469710.497 0
G20  22642896.932 0
G21  21421699.650 0
G25  22647621.753 0
G26  21469857.836 0
G29  20734672.480 0
G31  22440620.894 0
> 2018 03 15 18 49  8.9000000  0  9      
G04  20415165.541 0
G05  23343142.844 0
G16  23469647.436 0
G20  22642848.061 0
G21  21421669.245 0
G25  22647681.751 0
G26  21469817.158 0
G29  20734702.301 0
G31  22440664.801 0
> 2018 03 15 18 49  9.0000000  0  9      
G04  20415143.898 0
G05  23343157.178 0
G16  23469584.376 0
G20  22642799.189 0
G21  21421638.841 0
G25  22647741.749 0
G26  21469776.481 0
G29  20734732.124 0
G31  22440708.710 0
> 2018 03 15 18 49  9.1000000  0  9      
G04  20415122.257 0
G05  23343171.513 0
G16  23469521.316 0
G20  22642750.318 0
G21  21421608.438 0
G25  22647801.747 0
G26  21469735.805 0
G29  20734761.947 0
G31  22440752.619 0
> 2018 03 15 18 49  9.2000000  0  9      
G04  20415100.617 0
G05  23343185.849 0
G16  23469458.258 0
G20  22642701.447 0
G21  21421578.035 0
G25  22647861.745 0
G26  21469695.129 0
G29  20734791.770 0
G31  22440796.529 0
> 2018 03 15 18 49  9.3000000  0  9      
G04  20415078.979 0
G05  23343200.186 0
G16  23469395.200 0
G20  22642652.576 0
G21  21421547.633 0
G25  22647921.744 0
G26  21469654.456 0
G29  20734821.594 0
G31  22440840.440 0
> 2018 03 15 18 49  9.4000000  0  9      
G04  20415057.341 0
G05  23343214.525 0
G16  23469332.142 0
G20  22642603.706 0
G21  21421517.232 0
G25  22647981.743 0
G26  21469613.783 0
G29  20734851.418 0
G31  22440884.352 0
> 2018 03 15 18 49  9.5000000  0  9      
G04  20415035.705 0
G05  23343228.865 0
G16  23469269.086 0
G20  22642554.836 0
G21  21421486.831 0
G25  22648041.742 0
G26  21469573.111 0
G29  20734881.243 0
G31  22440928.265 0
> 2018 03 15 18 49  9.6000000  0  9      
G04  20415014.070 0
G05  23343243.206 0
G16  23469206.030 0
G20  22642505.967 0
G21  21421456.431 0
G25  22648101.741 0
G26  21469532.440 0
G29  20734911.069 0
G31  22440972.178 0
> 2018 03 15 18 49  9.7000000  0  9      
G04  20414992.436 0
G05  23343257.548 0
G16  23469142.975 0
G20  22642457.098 0
G21  21421426.032 0
G25  22648161.741 0
G26  21469491.771 0
G29  20734940.895 0
G31  22441016.093 0
> 2018 03 15 18 49  9.8000000  0  9      
G04  20414970.804 0
G05  23343271.892 0
G16  23469079.921 0
G20  22642408.229 0
G21  21421395.633 0
G25  22648221.740 0
G26  21469451.102 0
G29  20734970.722 0
G31  22441060.008 0
> 2018 03 15 18 49  9.9000000  0  9      
G04  20414949.172 0
G05  23343286.237 0
G16  23469016.867 0
G20  22642359.361 0
G21  21421365.236 0
G25  22648281.740 0
G26  21469410.434 0
G29  20735000.550 0
G31  22441103.924 0
> 2018 03 15 18 49 10.0000000  0  9      
G04  20414927.542 0
G05  23343300.583 0
G16  23468953.815 0
G20  22642310.492 0
G21  21421334.838 0
G25  22648341.740 0
G26  21469369.768 0
G29  20735030.378 0
G31  22441147.841 0
> 2018 03 15 18 49 10.1000000  0  9      
G04  20414905.913 0
G05  23343314.931 0
G16  23468890.763 0
G20  22642261.625 0
G21  21421304.442 0
G25  22648401.740 0
G26  21469329.103 0
G29  20735060.206 0
G31  22441191.758 0
> 2018 03 15 18 49 10.2000000  0  9      
G04  20414884.285 0
G05  23343329.280 0
G16  23468827.711 0
G20  22642212.757 0
G21  21421274.046 0
G25  22648461.740 0
G26  21469288.439 0
G29  20735090.036 0
G31  22441235.677 0
> 2018 03 15 18 49 10.3000000  0  9      
G04  20414862.659 0
G05  23343343.630 0
G16  23468764.661 0
G20  22642163.890 0
G21  21421243.651 0
G25  22648521.741 0
G26  21469247.775 0
G29  20735119.865 0
G31  22441279.596 0
> 2018 03 15 18 49 10.4000000  0  9      
G04  20414841.033 0
G05  23343357.982 0
G16  23468701.611 0
G20  22642115.024 0
G21  21421213.257 0
G25  22648581.741 0
G26  21469207.113 0
G29  20735149.696 0
G31  22441323.516 0
> 2018 03 15 18 49 10.5000000  0  9      
G04  20414819.409 0
G05  23343372.334 0
G16  23468638.562 0
G20  22642066.157 0
G21  21421182.863 0
G25  22648641.742 0
G26  21469166.452 0
G29  20735179.527 0
G31  22441367.437 0
> 2018 03 15 18 49 10.6000000  0  9      
G04  20414797.786 0
G05  23343386.688 0
G16  23468575.514 0
G20  22642017.291 0
G21  21421152.470 0
G25  22648701.743 0
G26  21469125.792 0
G29  20735209.358 0
G31  22441411.359 0
> 2018 03 15 18 49 10.7000000  0  9      
G04  20414776.164 0
G05  23343401.044 0
G16  23468512.466 0
G20  22641968.426 0
G21  21421122.078 0
G25  22648761.744 0
G26  21469085.133 0
G29  20735239.190 0
G31  22441455.281 0
> 2018 03 15 18 49 10.8000000  0  9      
G04  20414754.544 0
G05  23343415.400 0
G16  23468449.420 0
G20  22641919.560 0
G21  21421091.686 0
G25  22648821.745 0
G26  21469044.476 0
G29  20735269.023 0
G31  22441499.204 0
> 2018 03 15 18 49 10.9000000  0  9      
G04  20414732.924 0
G05  23343429.758 0
G16  23468386.374 0
G20  22641870.696 0
G21  21421061.295 0
G25  22648881.747 0
G26  21469003.819 0
G29  20735298.856 0
G31  22441543.129 0
> 2018 03 15 18 49 11.0000000  0  9      
G04  20414711.306 0
G05  23343444.118 0
G16  23468323.328 0
G20  22641821.831 0
G21  21421030.905 0
G25  22648941.749 0
G26  21468963.163 0
G29  20735328.690 0
G31  22441587.054 0
> 2018 03 15 18 49 11.1000000  0  9      
G04  20414689.689 0
G05  23343458.478 0
G16  23468260.284 0
G20  22641772.967 0
G21  21421000.515 0
G25  22649001.751 0
G26  21468922.509 0
G29  20735358.525 0
G31  22441630.979 0
> 2018 03 15 18 49 11.2000000  0  9      
G04  20414668.074 0
G05  23343472.840 0
G16  23468197.240 0
G20  22641724.103 0
G21  21420970.126 0
G25  22649061.753 0
G26  21468881.855 0
G29  20735388.360 0
G31  22441674.906 0
> 2018 03 15 18 49 11.3000000  0  9      
G04  20414646.459 0
G05  23343487.203 0
G16  23468134.197 0
G20  22641675.240 0
G21  21420939.738 0
G25  22649121.755 0
G26  21468841.203 0
G29  20735418.195 0
G31  22441718.833 0
> 2018 03 15 18 49 11.4000000  0  9      
G04  20414624.846 0
G05  23343501.568 0
G16  23468071.155 0
G20  22641626.377 0
G21  21420909.350 0
G25  22649181.757 0
G26  21468800.551 0
G29  20735448.032 0
G31  22441762.761 0
> 2018 03 15 18 49 11.5000000  0  9      
G04  20414603.233 0
G05  23343515.934 0
G16  23468008.113 0
G20  22641577.514 0
G21  21420878.963 0
G25  22649241.760 0
G26  21468759.901 0
G29  20735477.869 0
G31  22441806.690 0
> 2018 03 15 18 49 11.6000000  0  9      
G04  20414581.623 0
G05  23343530.301 0
G16  23467945.073 0
G20  22641528.652 0
G21  21420848.577 0
G25  22649301.763 0
G26  21468719.252 0
G29  20735507.706 0
G31  22441850.620 0
> 2018 03 15 18 49 11.7000000  0  9      
G04  20414560.013 0
G05  23343544.670 0
G16  23467882.033 0
G20  22641479.790 0
G21  21420818.191 0
G25  22649361.766 0
G26  21468678.603 0
G29  20735537.544 0
G31  22441894.550 0
> 2018 03 15 18 49 11.8000000  0  9      
G04  20414538.404 0
G05  23343559.039 0
G16  23467818.993 0
G20  22641430.928 0
G21  21420787.807 0
G25  22649421.769 0
G26  21468637.956 0
G29  20735567.383 0
G31  22441938.482 0
> 2018 03 15 18 49 11.9000000  0  9      
G04  20414516.797 0
G05  23343573.411 0
G16  23467755.955 0
G20  22641382.067 0
G21  21420757.422 0
G25  22649481.772 0
G26  21468597.310 0
G29  20735597.222 0
G31  22441982.414 0
> 2018 03 15 18 49 12.0000000  0  9      
G04  20414495.191 0
G05  23343587.783 0
G16  23467692.917 0
G20  22641333.206 0
G21  21420727.039 0
G25  22649541.776 0
G26  21468556.665 0
G29  20735627.062 0
G31  22442026.347 0
> 2018 03 15 18 49 12.1000000  0  9      
G04  20414473.586 0
G05  23343602.157 0
G16  23467629.880 0
G20  22641284.345 0
G21  21420696.656 0
G25  22649601.780 0
G26  21468516.021 0
G29  20735656.903 0
G31  22442070.280 0
> 2018 03 15 18 49 12.2000000  0  9      
G04  20414451.982 0
G05  23343616.532 0
G16  23467566.843 0
G20  22641235.485 0
G21  21420666.274 0
G25  22649661.784 0
G26  21468475.378 0
G29  20735686.744 0
G31  22442114.215 0
> 2018 03 15 18 49 12.3000000  0  9      
G04  20414430.379 0
G05  23343630.908 0
G16  23467503.808 0
G20  22641186.626 0
G21  21420635.892 0
G25  22649721.788 0
G26  21468434.736 0
G29  20735716.586 0
G31  22442158.150 0
> 2018 03 15 18 49 12.4000000  0  9      
G04  20414408.778 0
G05  23343645.286 0
G16  23467440.773 0
G20  22641137.766 0
G21  21420605.511 0
G25  22649781.792 0
G26  21468394.096 0
G29  20735746.428 0
G31  22442202.086 0
> 2018 03 15 18 49 12.5000000  0  9      
G04  20414387.178 0
G05  23343659.665 0
G16  23467377.739 0
G20  22641088.907 0
G21  21420575.131 0
G25  22649841.797 0
G26  21468353.456 0
G29  20735776.271 0
G31  22442246.023 0
> 2018 03 15 18 49 12.6000000  0  9      
G04  20414365.579 0
G05  23343674.046 0
G16  23467314.705 0
G20  22641040.049 0
G21  21420544.751 0
G25  22649901.801 0
G26  21468312.817 0
G29  20735806.115 0
G31  22442289.960 0
> 2018 03 15 18 49 12.7000000  0  9      
G04  20414343.981 0
G05  23343688.428 0
G16  23467251.672 0
G20  22640991.190 0
G21  21420514.372 0
G25  22649961.806 0
G26  21468272.180 0
G29  20735835.959 0
G31  22442333.898 0
> 2018 03 15 18 49 12.8000000  0  9      
G04  20414322.384 0
G05  23343702.811 0
G16  23467188.640 0
G20  22640942.333 0
G21  21420483.994 0
G25  22650021.811 0
G26  21468231.543 0
G29  20735865.804 0
G31  22442377.837 0
> 2018 03 15 18 49 12.9000000  0  9      
G04  20414300.789 0
G05  23343717.196 0
G16  23467125.609 0
G20  22640893.475 0
G21  21420453.617 0
G25  22650081.817 0
G26  21468190.908 0
G29  20735895.649 0
G31  22442421.777 0
> 2018 03 15 18 49 13.0000000  0  9      
G04  20414279.195 0
G05  23343731.582 0
G16  23467062.579 0
G20  22640844.618 0
G21  21420423.240 0
G25  22650141.822 0
G26  21468150.273 0
G29  20735925.495 0
G31  22442465.718 0
> 2018 03 15 18 49 13.1000000  0  9      
G04  20414257.602 0
G05  23343745.969 0
G16  23466999.549 0
G20  22640795.761 0
G21  21420392.863 0
G25  22650201.828 0
G26  21468109.640 0
G29  20735955.342 0
G31  22442509.659 0
> 2018 03 15 18 49 13.2000000  0  9      
G04  20414236.010 0
G05  23343760.358 0
G16  23466936.520 0
G20  22640746.905 0
G21  21420362.488 0
G25  22650261.834 0
G26  21468069.007 0
G29  20735985.189 0
G31  22442553.601 0
> 2018 03 15 18 49 13.3000000  0  9      
G04  20414214.419 0
G05  23343774.748 0
G16  23466873.491 0
G20  22640698.049 0
G21  21420332.113 0
G25  22650321.840 0
G26  21468028.376 0
G29  20736015.037 0
G31  22442597.544 0
> 2018 03 15 18 49 13.4000000  0  9      
G04  20414192.830 0
G05  23343789.139 0
G16  23466810.464 0
G20  22640649.194 0
G21  21420301.739 0
G25  22650381.846 0
G26  21467987.746 0
G29  20736044.886 0
G31  22442641.488 0
> 2018 03 15 18 49 13.5000000  0  9      
G04  20414171.241 0
G05  23343803.532 0
G16  23466747.437 0
G20  22640600.338 0
G21  21420271.365 0
G25  22650441.852 0
G26  21467947.117 0
G29  20736074.735 0
G31  22442685.432 0
> 2018 03 15 18 49 13.6000000  0  9      
G04  20414149.654 0
G05  23343817.926 0
G16  23466684.410 0
G20  22640551.484 0
G21  21420240.992 0
G25  22650501.859 0
G26  21467906.488 0
G29  20736104.585 0
G31  22442729.377 0
> 2018 03 15 18 49 13.7000000  0  9      
G04  20414128.068 0
G05  23343832.321 0
G16  23466621.385 0
G20  22640502.629 0
G21  21420210.620 0
G25  22650561.866 0
G26  21467865.861 0
G29  20736134.435 0
G31  22442773.323 0
> 2018 03 15 18 49 13.8000000  0  9      
G04  20414106.484 0
G05  23343846.718 0
G16  23466558.360 0
G20  22640453.775 0
G21  21420180.248 0
G25  22650621.873 0
G26  21467825.235 0
G29  20736164.287 0
G31  22442817.270 0
> 2018 03 15 18 49 13.9000000  0  9      
G04  20414084.900 0
G05  23343861.116 0
G16  23466495.336 0
G20  22640404.922 0
G21  21420149.877 0
G25  22650681.880 0
G26  21467784.610 0
G29  20736194.138 0
G31  22442861.217 0
> 2018 03 15 18 49 14.0000000  0  9      
G04  20414063.318 0
G05  23343875.516 0
G16  23466432.313 0
G20  22640356.069 0
G21  21420119.507 0
G25  22650741.888 0
G26  21467743.986 0
G29  20736223.991 0
G31  22442905.165 0
> 2018 03 15 18 49 14.1000000  0  9      
G04  20414041.737 0
G05  23343889.917 0
G16  23466369.290 0
G20  22640307.216 0
G21  21420089.137 0
G25  22650801.895 0
G26  21467703.363 0
G29  20736253.844 0
G31  22442949.114 0
> 2018 03 15 18 49 14.2000000  0  9      
G04  20414020.157 0
G05  23343904.319 0
G16  23466306.268 0
G20  22640258.363 0
G21  21420058.768 0
G25  22650861.903 0
G26  21467662.741 0
G29  20736283.697 0
G31  22442993.064 0
> 2018 03 15 18 49 14.3000000  0  9      
G04  20413998.578 0
G05  23343918.723 0
G16  23466243.247 0
G20  22640209.511 0
G21  21420028.399 0
G25  22650921.911 0
G26  21467622.120 0
G29  20736313.552 0
G31  22443037.014 0
> 2018 03 15 18 49 14.4000000  0  9      
G04  20413977.000 0
G05  23343933.128 0
G16  23466180.226 0
G20  22640160.660 0
G21  21419998.032 0
G25  22650981.920 0
G26  21467581.501 0
G29  20736343.406 0
G31  22443080.965 0
> 2018 03 15 18 49 14.5000000  0  9      
G04  20413955.424 0
G05  23343947.534 0
G16  23466117.206 0
G20  22640111.809 0
G21  21419967.665 0
G25  22651041.928 0
G26  21467540.882 0
G29  20736373.262 0
G31  22443124.917 0
> 2018 03 15 18 49 14.6000000  0  9      
G04  20413933.849 0
G05  23343961.942 0
G16  23466054.187 0
G20  22640062.958 0
G21  21419937.298 0
G25  22651101.937 0
G26  21467500.264 0
G29  20736403.118 0
G31  22443168.869 0
> 2018 03 15 18 49 14.7000000  0  9      
G04  20413912.274 0
G05  23343976.352 0
G16  23465991.169 0
G20  22640014.108 0
G21  21419906.932 0
G25  22651161.946 0
G26  21467459.647 0
G29  20736432.975 0
G31  22443212.823 0
> 2018 03 15 18 49 14.8000000  0  9      
G04  20413890.702 0
G05  23343990.762 0
G16  23465928.151 0
G20  22639965.258 0
G21  21419876.567 0
G25  22651221.955 0
G26  21467419.032 0
G29  20736462.832 0
G31  22443256.777 0
> 2018 03 15 18 49 14.9000000  0  9      
G04  20413869.130 0
G05  23344005.174 0
G16  23465865.134 0
G20  22639916.408 0
G21  21419846.202 0
G25  22651281.964 0
G26  21467378.417 0
G29  20736492.691 0
G31  22443300.731 0
> 2018 03 15 18 49 15.0000000  0  9      
G04  20413847.559 0
G05  23344019.588 0
G16  23465802.118 0
G20  22639867.559 0
G21  21419815.839 0
G25  22651341.974 0
G26  21467337.803 0
G29  20736522.549 0
G31  22443344.687 0
> 2018 03 15 18 49 15.1000000  0  9      
G04  20413825.990 0
G05  23344034.003 0
G16  23465739.102 0
G20  22639818.710 0
G21  21419785.475 0
G25  22651401.983 0
G26  21467297.191 0
G29  20736552.409 0
G31  22443388.643 0
> 2018 03 15 18 49 15.2000000  0  9      
G04  20413804.422 0
G05  23344048.419 0
G16  23465676.087 0
G20  22639769.862 0
G21  21419755.113 0
G25  22651461.993 0
G26  21467256.579 0
G29  20736582.269 0
G31  22443432.600 0
> 2018 03 15 18 49 15.3000000  0  9      
G04  20413782.855 0
G05  23344062.837 0
G16  23465613.073 0
G20  22639721.014 0
G21  21419724.751 0
G25  22651522.004 0
G26  21467215.969 0
G29  20736612.129 0
G31  22443476.558 0
> 2018 03 15 18 49 15.4000000  0  9      
G04  20413761.289 0
G05  23344077.256 0
G16  23465550.059 0
