     2.11           OBSERVATION DATA    G (GPS)             RINEX VERSION / TYPE
teqc  2017Sep15     UNAVCO Archive Ops  20170920 11:45:51UTCPGM / RUN BY / DATE
Solaris x86 5.10|AMD64|cc SC5.8 -xarch=amd64|=+|=+          COMMENT
BIT 2 OF LLI FLAGS DATA COLLECTED UNDER A/S CONDITION       COMMENT
HOLP                                                        MARKER NAME
49903M001                                                   MARKER NUMBER
Ken Hudnut          U.S. Geological Survey                  OBSERVER / AGENCY
618-01104           TPS NET-G3A         4.7 Oct,18,2016 p2  REC # / TYPE / VERS
383-1915            TPSCR.G3        SCIS                    ANT # / TYPE
 -2500946.0962 -4670472.9515  3539500.5469                  APPROX POSITION XYZ
        0.1310        0.0000        0.0000                  ANTENNA: DELTA H/E/N
     1     1                                                WAVELENGTH FACT L1/2
     7    L1    L2    C1    P2    P1    S1    S2            # / TYPES OF OBSERV
    30.0000                                                 INTERVAL
    18                                                      LEAP SECONDS
input file: holp201709190000a.tps                           COMMENT
Forced Modulo Decimation to 30 seconds                      COMMENT
RINEX file created by UNAVCO GPS Archive.                   COMMENT
For more information contact archive-gps@unavco.org         COMMENT
Monument ID: 19503                                          COMMENT
UNAVCO 4-char name:   HOLP                                  COMMENT
4-char name from Log or data file: HOLP                     COMMENT
Monument location: 33.924539753 -118.168170699 -6.7077      COMMENT
Visit ID: 118107                                            COMMENT
doi:10.7283/T50R9MNS                                        COMMENT
End of DB comments                                          COMMENT
 SNR is mapped to RINEX snr flag value [0-9]                COMMENT
  L1 & L2: min(max(int(snr_dBHz/6), 0), 9)                  COMMENT
pseudorange smoothing corrections not applied               COMMENT
rx serial #: 618-01104                                      COMMENT
  2017     9    19     0     0    0.0000000     GPS         TIME OF FIRST OBS
                                                            END OF HEADER
 17  9 19  0  0  0.0000000  0  9G04G24G27G10G14G21G18G32G08
 118007961.880 7  91954253.00045  22456169.352    22456167.259    22456168.756
        46.000          32.0004
 123801861.705 7  96468983.14744  23558708.831    23558710.263    23558708.201
        42.000          28.0004
 114091997.196 8  88902856.53546  21710982.966    21710982.252    21710982.680
        48.000          38.0004
 109157397.751 8  85057730.38647  20771951.455    20771950.805    20771951.250
        52.000          45.0004
 113206486.942 7  88212840.81246  21542467.333    21542465.174    21542466.692
        47.000          36.0004
 117234586.950 7  91351619.24245  22308992.235    22308989.816    22308991.630
        47.000          34.0004
 114733762.968 8  89402941.61546  21833101.045    21833097.269    21833099.958
        48.000          36.0004
 109015801.086 8  84947389.45147  20745005.847    20745005.420    20745005.790
        53.000          45.0004
 119611494.883 6  93203752.73145  22761305.284    22761306.533    22761305.060
        41.000          30.0004
 17  9 19  0  0 30.0000000  0  9G04G24G27G10G14G21G18G32G08
 118076058.868 7  92007315.56045  22469127.441    22469126.115    22469127.093
        45.000          32.0004
 123827381.281 6  96488868.52844  23563565.303    23563566.189    23563564.805
        41.000          28.0004
 114133241.290 8  88934994.76946  21718831.237    21718830.588    21718830.914
        48.000          38.0004
 109167640.870 8  85065712.02747  20773900.573    20773900.139    20773900.153
        52.000          44.0004
 113138221.973 7  88159647.35246  21529476.829    21529474.667    21529476.139
        46.000          36.0004
 117297824.860 7  91400895.50545  22321026.297    22321023.238    22321025.218
        46.000          33.0004
 114773183.464 8  89433658.87946  21840602.465    21840598.566    21840601.507
        48.000          36.0004
 108973818.288 8  84914675.59547  20737016.508    20737016.366    20737016.698
        52.000          45.0004
 119586486.228 7  93184265.46045  22756547.038    22756547.610    22756546.110
        43.000          30.0004
 17  9 19  0  1  0.0000000  0  9G04G24G27G10G14G21G18G32G08
 118144489.685 7  92060638.23745  22482149.533    22482147.677    22482149.033
        45.000          32.0004
 123853444.889 6  96509177.83144  23568525.086    23568525.635    23568524.942
        41.000          28.0004
 114174993.015 8  88967528.56046  21726776.407    21726775.812    21726776.002
        49.000          38.0004
 109178060.395 8  85073831.13847  20775883.168    20775882.823    20775882.620
        52.000          45.0004
 113070353.221 7  88106762.63346  21516562.350    21516559.495    21516561.178
        47.000          36.0004
 117361405.538 7  91450438.85445  22333125.058    22333122.539    22333124.143
        46.000          33.0004
 114812691.470 8  89464444.32846  21848120.510    21848116.844    21848119.623
        48.000          36.0004
 108932321.315 8  84882340.30547  20729120.078    20729119.864    20729120.080
        53.000          45.0004
 119562030.093 7  93165208.72445  22751892.964    22751893.252    22751892.831
        44.000          30.0004
 17  9 19  0  1 30.0000000  0  9G04G24G27G10G14G21G18G32G08
 118213252.133 7  92114219.33345  22495234.366    22495232.672    22495233.742
        44.000          31.0004
 123880051.854 7  96529910.52044  23573588.873    23573588.768    23573588.256
        42.000          28.0004
 114217251.016 7  89000456.85146  21734817.932    21734817.345    21734817.055
        47.000          37.0004
 109188656.759 8  85082088.03447  20777899.842    20777899.174    20777899.463
        53.000          45.0004
 113002882.698 8  88054188.22446  21503723.175    21503720.401    21503721.984
        48.000          36.0004
 117425329.322 7  91500249.57245  22345289.710    22345286.513    22345288.317
        46.000          33.0004
 114852288.337 8  89495299.03146  21855655.549    21855652.000    21855654.974
        49.000          37.0004
 108891311.361 8  84850384.50447  20721316.328    20721315.851    20721316.164
        53.000          45.0004
 119538127.436 7  93146583.27245  22747344.424    22747345.087    22747344.244
        43.000          30.0004
 17  9 19  0  2  0.0000000  0  9G04G24G27G10G14G21G18G32G08
 118282343.676 7  92168056.87445  22508381.828    22508380.447    22508381.349
        46.000          31.0004
 123907201.863 7  96551066.37544  23578754.992    23578755.194    23578754.475
        44.000          27.0004
 114260013.446 7  89033778.20746  21742954.898    21742954.926    21742954.513
        46.000          38.0004
 109199429.831 8  85090482.63447  20779949.810    20779949.313    20779949.584
        53.000          45.0004
 112935811.856 7  88001925.25746  21490959.639    21490957.160    21490958.998
        46.000          36.0004
 117489595.312 7  91550326.93245  22357518.986    22357516.061    22357517.872
        46.000          32.0004
 114891974.010 8  89526222.92546  21863207.468    21863203.958    21863206.628
        49.000          36.0004
 108850789.000 8  84818808.64847  20713604.884    20713604.711    20713604.925
        52.000          45.0004
 119514778.876 7  93128389.57945  22742902.202    22742901.752    22742901.685
        44.000          31.0004
 17  9 19  0  2 30.0000000  0  9G04G24G27G10G14G21G18G32G08
 118351761.723 7  92222148.82245  22521591.707    22521589.809    22521590.984
        45.000          31.0004
 123934894.829 7  96572645.32744  23584024.866    23584025.017    23584024.118
        42.000          27.0004
 114303278.337 8  89067491.08446  21751188.477    21751187.660    21751187.710
        48.000          37.0004
 109210379.432 8  85099014.78847  20782033.635    20782032.940    20782033.208
        51.000          45.0004
 112869142.103 7  87949974.82846  21478272.949    21478270.302    21478272.290
        47.000          37.0004
 117554203.171 7  91600670.67745  22369813.563    22369810.562    22369812.213
        46.000          32.0004
 114931748.841 8  89557216.28246  21870776.565    21870772.676    21870775.390
        48.000          36.0004
 108810754.751 8  84787613.14047  20705986.421    20705986.486    20705986.408
        52.000          45.0004
 119491984.863 7  93110628.00745  22738564.762    22738564.540    22738564.246
        45.000          32.0004
 17  9 19  0  3  0.0000000  0  9G04G24G27G10G14G21G18G32G08
 118421502.504 7  92276492.25745  22534862.750    22534860.988    22534861.434
        44.000          30.0004
 123963129.544 6  96594646.41444  23589397.145    23589398.279    23589396.610
        41.000          27.0004
 114347042.657 7  89101593.13146  21759516.435    21759516.010    21759516.143
        46.000          38.0004
 109221504.343 8  85107683.55047  20784150.556    20784149.914    20784150.139
        52.000          44.0004
 112802873.710 7  87898337.14146  21465662.359    21465659.560    21465661.786
        47.000          36.0004
 117619152.012 7  91651280.13745  22382173.135    22382170.198    22382172.046
        46.000          33.0004
 114971611.966 8  89588278.45346  21878361.510    21878358.437    21878360.849
        48.000          36.0004
 108771208.071 8  84756797.55847  20698460.969    20698460.771    20698460.849
        53.000          45.0004
 119469745.452 7  93093298.58945  22734332.282    22734332.468    22734332.301
        44.000          32.0004
 17  9 19  0  3 30.0000000  0  9G04G24G27G10G14G21G18G32G08
 118491564.244 7  92331085.77845  22548195.675    22548193.673    22548194.483
        43.000          31.0004
 123991906.496 6  96617069.99444  23594873.456    23594874.298    23594872.664
        41.000          27.0004
 114391305.544 8  89136083.66546  21767938.984    21767938.752    21767938.688
        48.000          37.0004
 109232805.482 8  85116489.63147  20786301.340    20786300.319    20786300.877
        53.000          45.0004
 112737008.919 8  87847013.95246  21453128.986    21453126.204    21453128.340
        48.000          37.0004
 117684441.509 7  91702155.03345  22394597.830    22394594.409    22394596.276
        45.000          32.0004
 115011564.468 8  89619410.26346  21885964.444    21885961.457    21885963.761
        48.000          36.0004
 108732150.550 8  84726363.13747  20691028.901    20691028.409    20691028.726
        52.000          45.0004
 119448061.769 7  93076402.20845  22730205.626    22730206.161    22730205.630
        42.000          31.0004
 17  9 19  0  4  0.0000000  0  9G04G24G27G10G14G21G18G32G08
 118561943.807 7  92385926.96645  22561587.937    22561586.229    22561587.170
        43.000          30.0004
 124021224.823 7  96639915.42444  23600452.778    23600453.481    23600452.299
        42.000          27.0004
 114436064.408 8  89170960.67646  21776456.405    21776456.286    21776456.075
        48.000          37.0004
 109244282.319 8  85125432.61247  20788484.869    20788484.294    20788484.707
        53.000          45.0004
 112671548.398 7  87796005.77046  21440672.218    21440669.190    21440671.622
        47.000          37.0004
 117750070.942 7  91753294.82045  22407086.008    22407083.414    22407084.770
        45.000          33.0004
 115051606.246 8  89650611.63246  21893584.715    21893581.039    21893583.849
        49.000          36.0004
 108693582.084 8  84696309.79547  20683689.334    20683689.023    20683689.195
        52.000          45.0004
 119426933.941 7  93059938.96645  22726185.713    22726186.130    22726185.173
        43.000          31.0004
 17  9 19  0  4 30.0000000  0  9G04G24G27G10G14G21G18G32G08
 118632638.776 7  92441013.92045  22575040.992    22575039.464    22575040.214
        43.000          30.0004
 124051084.034 7  96663182.35844  23606134.929    23606135.335    23606134.623
        43.000          27.0004
 114481317.541 7  89206222.84046  21785067.750    21785067.875    21785067.220
        47.000          37.0004
 109255934.689 8  85134512.38447  20790702.491    20790701.584    20790702.102
        51.000          44.0004
 112606493.874 7  87745313.95246  21428293.180    21428289.665    21428292.284
        47.000          37.0004
 117816039.947 7  91804699.20745  22419639.783    22419636.957    22419638.657
        47.000          33.0004
 115091737.657 7  89681882.85146  21901221.170    21901217.747    21901220.408
        47.000          36.0004
 108655503.454 8  84666638.14147  20676443.144    20676442.947    20676443.048
        52.000          45.0004
 119406362.766 7  93043909.46645  22722271.735    22722271.671    22722270.631
        45.000          31.0004
 17  9 19  0  5  0.0000000  0  9G04G24G27G10G14G21G18G32G08
 118703645.430 7  92496343.74145  22588552.871    22588551.725    22588552.502
        44.000          30.0004
 124081482.921 7  96686869.81144  23611920.193    23611919.627    23611919.851
        42.000          27.0004
 114527061.805 7  89241867.70146  21793772.741    21793772.599    21793772.205
        46.000          37.0004
 109267761.530 8  85143728.09747  20792952.798    20792952.371    20792952.601
        52.000          44.0004
 112541845.788 7  87694938.84246  21415990.832    21415987.791    21415990.190
        47.000          37.0004
 117882347.058 7  91856367.04545  22432257.615    22432255.020    22432256.578
        45.000          33.0004
 115131957.738 8  89713223.16345  21908875.038    21908871.238    21908873.737
        48.000          35.0004
 108617913.973 8  84637347.65347  20669289.953    20669289.972    20669289.971
        53.000          45.0004
 119386347.631 7  93028313.25145  22718462.238    22718462.656    22718462.207
        44.000          31.0004
 17  9 19  0  5 30.0000000  0  9G04G24G27G10G14G21G18G32G08
 118774961.128 7  92551914.38145  22602124.583    22602122.540    22602123.804
        44.000          30.0004
 124112421.338 7  96710977.68044  23617806.987    23617806.728    23617806.519
        42.000          27.0004
 114573295.332 7  89277893.80246  21802570.796    21802570.350    21802570.255
        47.000          37.0004
 109279762.847 8  85153079.77247  20795236.950    20795236.139    20795236.697
        52.000          44.0004
 112477605.241 8  87644881.28746  21403766.067    21403763.311    21403765.418
        48.000          37.0004
 117948991.955 7  91908298.09845  22444939.030    22444937.232    22444938.628
        45.000          33.0004
 115172267.115 8  89744633.06646  21916545.556    21916541.794    21916544.707
        48.000          36.0004
 108580814.218 8  84608438.76547  20662230.187    20662230.286    20662230.194
        52.000          45.0004
 119366889.066 7  93013150.73245  22714759.480    22714759.558    22714759.585
        45.000          31.0004
 17  9 19  0  6  0.0000000  0  9G04G24G27G10G14G21G18G32G08
 118846583.795 7  92607724.21945  22615753.407    22615752.309    22615753.097
        45.000          30.0004
 124143899.116 6  96735505.82144  23623796.944    23623796.930    23623796.340
        41.000          27.0004
 114620016.611 8  89314299.97046  21811461.997    21811461.552    21811461.188
        48.000          37.0004
 109291939.140 8  85162567.79547  20797553.694    20797552.966    20797553.446
        52.000          45.0004
 112413773.994 8  87595142.67546  21391619.133    21391616.447    21391618.393
        49.000          37.0004
 118015974.362 7  91960492.14245  22457685.743    22457683.428    22457685.014
        45.000          33.0004
 115212666.158 8  89776112.83046  21924232.991    21924229.501    21924232.370
        48.000          36.0004
 108544205.224 8  84579912.29247  20655263.879    20655263.642    20655263.899
        53.000          46.0004
 119347988.008 7  92998422.62445  22711163.107    22711162.962    22711162.367
        44.000          31.0004
 17  9 19  0  6 30.0000000  0  9G04G24G27G10G14G21G18G32G08
 118918510.152 7  92663770.69345  22629440.922    22629438.951    22629440.438
        45.000          30.0004
 124175915.282 7  96760453.45444  23629889.912    23629889.785    23629888.685
        42.000          27.0004
 114667222.934 8  89351084.09646  21820444.918    21820444.658    21820444.350
        48.000          37.0004
 109304289.661 8  85172191.57347  20799903.662    20799903.206    20799903.636
        51.000          44.0004
 112350352.658 7  87545723.47046  21379550.246    21379547.946    21379549.289
        46.000          37.0004
 118083293.314 7  92012948.42845  22470496.330    22470493.993    22470495.236
        46.000          32.0004
 115253154.757 8  89807662.38146  21931938.122    21931934.649    21931936.941
        48.000          36.0004
 108508086.695 8  84551767.99847  20648390.883    20648390.532    20648390.800
        53.000          45.0004
 119329644.113 7  92984128.66945  22707671.795    22707672.064    22707671.590
        43.000          31.0004
 17  9 19  0  7  0.0000000  0  9G04G24G27G10G14G21G18G32G08
 118990737.259 7  92720051.53445  22643184.847    22643183.802    22643184.529
        45.000          30.0004
 124208468.940 6  96785819.93844  23636084.975    23636084.358    23636083.632
        41.000          28.0004
 114714912.159 7  89388244.50846  21829519.575    21829519.619    21829519.290
        47.000          37.0004
 109316814.277 8  85181951.00547  20802287.196    20802286.887    20802287.136
        53.000          45.0004
 112287342.649 7  87496624.78946  21367559.922    21367557.569    21367558.969
        47.000          37.0004
 118150948.075 7  92065666.38945  22483370.691    22483368.219    22483369.496
        45.000          32.0004
 115293732.877 7  89839281.68445  21939659.596    21939656.373    21939658.461
        47.000          35.0004
 108472459.022 8  84524006.18747  20641611.345    20641610.809    20641611.161
        53.000          46.0004
 119311858.070 7  92970269.42045  22704287.168    22704287.765    22704286.775
        44.000          31.0004
 17  9 19  0  7 30.0000000  0  9G04G24G27G10G14G21G18G32G08
 119063262.457 7  92776564.63445  22656986.368    22656985.266    22656985.430
        45.000          30.0004
 124241559.674 6  96811604.92944  23642380.945    23642381.089    23642381.146
        40.000          27.0004
 114763082.087 7  89425779.49846  21838685.807    21838685.931    21838685.305
        47.000          37.0004
 109329512.801 8  85191845.95047  20804704.054    20804703.369    20804703.688
        53.000          45.0004
 112224744.776 7  87447847.24646  21355647.809    21355645.305    21355647.063
        47.000          37.0004
 118218938.281 7  92118645.72645  22496308.747    22496306.373    22496307.892
        44.000          32.0004
 115334401.064 7  89870971.15946  21947398.645    21947395.428    21947397.690
        47.000          36.0004
 108437322.421 8  84496627.02347  20634924.928    20634924.626    20634924.873
        52.000          46.0004
 119294630.009 7  92956844.95245  22701009.064    22701009.046    22701008.654
        43.000          31.0004
 17  9 19  0  8  0.0000000  0  9G04G24G27G10G14G21G18G32G08
 119136082.591 7  92833307.56545  22670844.225    22670842.216    22670842.764
        43.000          30.0004
 124275186.156 7  96837807.38144  23648779.899    23648780.016    23648780.040
        42.000          28.0004
 114811730.147 7  89463687.05646  21847943.197    21847943.692    21847942.781
        47.000          37.0004
 109342384.673 8  85201875.97247  20807153.233    20807152.738    20807153.037
        52.000          45.0004
 112162560.328 7  87399391.84946  21343814.800    21343812.241    21343813.863
        46.000          37.0004
 118287262.482 7  92171885.31945  22509310.357    22509307.585    22509309.040
        45.000          32.0004
 115375158.922 7  89902730.51046  21955154.677    21955151.335    21955153.888
        46.000          36.0004
 108402676.841 8  84469630.48047  20628331.852    20628331.663    20628331.785
        52.000          46.0004
 119277959.747 7  92943855.12945  22697837.205    22697836.892    22697836.831
        44.000          31.0004
 17  9 19  0  8 30.0000000  0  9G04G24G27G10G14G21G18G32G08
 119209195.379 7  92890278.54445  22684756.317    22684754.858    22684755.389
        44.000          30.0004
 124309348.487 6  96864427.37044  23655279.559    23655281.294    23655280.069
        39.000          27.0004
 114860854.716 7  89501965.91846  21857291.695    21857291.547    21857290.856
        46.000          37.0004
 109355430.365 8  85212041.44947  20809635.887    20809635.085    20809635.492
        53.000          44.0004
 112100790.551 8  87351259.57746  21332060.562    21332057.596    21332059.643
        48.000          37.0004
 118355920.484 7  92225385.03345  22522375.952    22522372.874    22522374.740
        46.000          32.0004
 115416007.122 8  89934560.26745  21962927.752    21962924.232    21962927.062
        49.000          35.0004
 108368523.098 8  84443017.18147  20621832.648    20621832.357    20621832.521
        52.000          46.0004
 119261848.217 7  92931300.68645  22694770.765    22694770.842    22694770.952
        45.000          31.0004
 17  9 19  0  9  0.0000000  0  9G04G24G27G10G14G21G18G32G08
 119282597.920 7  92947475.29345  22698724.344    22698723.268    22698723.490
        42.000          30.0004
 124344045.899 6  96891464.32744  23661883.283    23661883.799    23661882.629
        41.000          27.0004
 114910453.494 7  89540614.28846  21866729.794    21866730.049    21866729.306
        47.000          37.0004
 109368649.675 8  85222342.20547  20812151.438    20812150.798    20812151.354
        51.000          45.0004
 112039436.558 7  87303451.29446  21320384.988    21320382.453    21320384.306
        46.000          37.0004
 118424911.856 7  92279144.50645  22535504.308    22535501.598    22535503.205
        45.000          32.0004
 115456946.186 7  89966460.82045  21970718.226    21970714.809    21970717.380
        47.000          35.0004
 108334861.360 8  84416787.26447  20615427.144    20615426.703    20615426.958
        53.000          45.0004
 119246295.378 7  92919181.58445  22691811.145    22691811.273    22691810.971
        45.000          31.0004
 17  9 19  0  9 30.0000000  0  9G04G24G27G10G14G21G18G32G08
 119356287.060 7  93004895.35945  22712747.297    22712745.566    22712746.365
        45.000          30.0004
 124379276.723 7  96918916.91644  23668588.100    23668587.369    23668587.679
        44.000          27.0004
 114960523.667 7  89579629.99346  21876258.029    21876257.888    21876257.523
        47.000          37.0004
 109382041.918 8  85232777.71647  20814700.052    20814699.230    20814699.935
        52.000          44.0004
 111978498.948 8  87255967.46246  21308788.994    21308786.443    21308788.141
        48.000          38.0004
 118494235.094 7  92333162.57645  22548696.051    22548693.445    22548694.745
        44.000          32.0004
 115497975.553 8  89998431.74345  21978525.872    21978522.335    21978525.000
        48.000          35.0004
 108301691.301 8  84390940.47647  20609114.792    20609114.556    20609114.786
        52.000          46.0004
 119231301.040 7  92907497.68145  22688958.004    22688957.860    22688957.360
        43.000          31.0004
 17  9 19  0 10  0.0000000  0  9G04G24G27G10G14G21G18G32G08
 119430259.531 7  93062536.21445  22726823.753    22726822.052    22726823.244
        43.000          30.0004
 124415040.647 7  96946784.90644  23675393.865    23675393.071    23675393.419
        43.000          28.0004
 115011062.810 8  89619011.12246  21885875.558    21885875.201    21885875.259
        48.000          37.0004
 109395606.731 8  85243347.70047  20817281.343    20817280.458    20817280.961
        52.000          45.0004
 111917978.389 8  87208808.61446  21297271.974    21297269.723    21297271.177
        48.000          38.0004
 118563889.760 7  92387438.90245  22561951.229    22561948.172    22561949.741
        45.000          31.0004
 115539095.443 8  90030473.21445  21986350.729    21986346.956    21986349.825
        49.000          35.0004
 108269012.922 8  84365476.81747  20602896.450    20602896.150    20602896.323
        52.000          46.0004
 119216865.337 7  92896249.08645  22686210.175    22686211.127    22686209.907
        43.000          31.0004
 17  9 19  0 10 30.0000000  0  9G04G24G27G10G14G21G18G32G08
 119504513.285 7  93120396.23845  22740953.995    22740951.592    22740953.061
        44.000          30.0004
 124451337.489 7  96975068.14544  23682300.656    23682300.613    23682300.381
        43.000          28.0004
 115062069.289 7  89658756.40946  21895581.846    21895581.666    21895581.391
        47.000          37.0004
 109409344.718 8  85254052.62547  20819895.438    20819894.630    20819895.150
        53.000          44.0004
 111857876.637 7  87161976.10146  21285835.170    21285832.742    21285834.272
        47.000          38.0004
 118633875.174 7  92441972.95345  22575268.181    22575265.968    22575267.727
        45.000          31.0004
 115580306.412 8  90062585.65445  21994192.991    21994189.304    21994191.936
        48.000          35.0004
 108236827.079 9  84340396.95247  20596771.645    20596771.435    20596771.633
        54.000          46.0004
 119202988.633 7  92885436.05845  22683570.147    22683570.776    22683569.349
        44.000          31.0004
 17  9 19  0 11  0.0000000  0  9G04G24G27G10G14G21G18G32G08
 119579045.324 7  93178473.11244  22755137.281    22755134.707    22755136.188
        44.000          29.0004
 124488165.838 7  97003765.54744  23689309.485    23689309.176    23689308.880
        44.000          28.0004
 115113540.507 7  89698863.82646  21905376.104    21905375.993    21905375.595
        47.000          37.0004
 109423255.463 8  85264892.16147  20822542.294    20822541.775    20822542.323
        52.000          44.0004
 111798194.653 8  87115470.68546  21274478.168    21274475.724    21274477.441
        49.000          38.0004
 118704190.631 7  92496764.18245  22588649.279    22588646.482    22588648.085
        44.000          31.0004
 115621608.446 8  90094769.03745  22002052.611    22002048.851    22002051.450
        49.000          35.0004
 108205133.637 8  84315700.77747  20590740.570    20590740.315    20590740.548
        52.000          46.0004
 119189671.160 7  92875058.78645  22681035.580    22681036.526    22681035.126
        43.000          31.0004
 17  9 19  0 11 30.0000000  0  9G04G24G27G10G14G21G18G32G08
 119653852.256 7  93236764.19644  22769372.255    22769369.890    22769371.643
        44.000          29.0004
 124525524.881 7  97032876.48544  23696418.071    23696418.428    23696417.717
        42.000          27.0004
 115165473.813 7  89739331.32146  21915258.672    21915258.472    21915258.365
        45.000          36.0004
 109437338.472 8  85275865.93347  20825222.489    20825221.740    20825222.003
        53.000          44.0004
 111738932.857 8  87069292.67646  21263200.895    21263198.390    21263200.234
        48.000          38.0004
 118774835.134 7  92551811.81445  22602092.668    22602089.852    22602091.479
        44.000          30.0004
 115663001.613 8  90127023.44945  22009929.373    22009925.514    22009928.398
        48.000          35.0004
 108173932.390 8  84291388.12847  20584803.464    20584803.004    20584803.197
        53.000          46.0004
 119176912.286 7  92865116.80045  22678607.162    22678608.188    22678606.907
        44.000          30.0004
 17  9 19  0 12  0.0000000  0  9G04G24G27G10G14G21G18G32G08
 119728931.625 7  93295267.56745  22783658.850    22783657.647    22783658.514
        44.000          30.0004
 124563413.461 6  97062400.04244  23703627.252    23703628.045    23703627.182
        40.000          27.0004
 115217867.094 7  89780157.23446  21925228.907    21925228.358    21925228.336
        47.000          36.0004
 109451593.861 8  85286974.02347  20827935.258    20827934.422    20827934.915
        50.000          45.0004
 111680092.568 8  87023443.12246  21252004.264    21252001.366    21252003.534
        48.000          38.0004
 118845807.435 7  92607114.86845  22615597.915    22615595.248    22615597.116
        44.000          30.0004
 115704486.409 7  90159349.24845  22017823.745    22017819.984    22017822.736
        46.000          35.0004
 108143223.674 8  84267459.27047  20578959.859    20578959.297    20578959.640
        53.000          46.0004
 119164712.998 7  92855610.84245  22676286.048    22676286.830    22676285.572
        43.000          31.0004
 17  9 19  0 12 30.0000000  0  9G04G24G27G10G14G21G18G32G08
 119804280.489 7  93353980.92244  22797997.292    22797995.999    22797996.515
        42.000          29.0004
 124601831.483 7  97092336.15744  23710939.066    23710938.777    23710937.911
        42.000          26.0004
 115270717.927 7  89821339.67146  21935285.848    21935285.581    21935285.440
        46.000          36.0004
 109466021.471 8  85298216.31247  20830680.482    20830679.935    20830680.318
        51.000          44.0004
 111621675.170 8  86977923.09746  21240887.840    21240884.805    21240887.006
        48.000          38.0004
 118917107.270 7  92662673.15044  22629165.738    22629163.322    22629164.520
        45.000          29.0004
 115746062.711 7  90191746.35846  22025735.121    22025732.192    22025734.410
        47.000          36.0004
 108113007.532 8  84243914.23747  20573209.552    20573209.480    20573209.626
        53.000          46.0004
 119153072.621 7  92846540.42245  22674070.904    22674071.715    22674070.563
        43.000          31.0004
 17  9 19  0 13  0.0000000  0 10G04G24G27G31G10G14G21G18G32G08
 119879896.360 7  93412902.33744  22812386.349    22812385.189    22812385.813
        42.000          29.0004
 124640777.668 7  97122683.84044  23718350.131    23718349.913    23718349.419
        43.000          27.0004
 115324024.272 7  89862877.06346  21945429.722    21945429.769    21945429.272
        46.000          36.0004
 131185766.768 6 102222664.03542  24963816.741    24963817.581    24963818.345
        38.000          14.0004
 109480621.579 8  85309593.01947  20833459.141    20833458.448    20833458.901
        49.000          44.0004
 111563681.263 8  86932733.04946  21229851.726    21229848.997    21229850.843
        48.000          38.0004
 118988734.036 7  92718486.15945  22642796.614    22642793.317    22642795.383
        45.000          30.0004
 115787731.092 7  90224215.21045  22033664.433    22033661.630    22033663.858
        47.000          35.0004
 108083284.406 8  84220753.36547  20567553.386    20567553.316    20567553.397
        50.000          46.0004
 119141991.629 7  92837905.87345  22671962.680    22671963.071    22671962.023
        45.000          31.0004
 17  9 19  0 13 30.0000000  0 10G04G24G27G31G10G14G21G18G32G08
 119955777.022 7  93472030.09044  22826826.344    22826825.433    22826825.502
        43.000          29.0004
 124680252.020 6  97153443.08644  23725860.443    23725861.572    23725861.116
        41.000          26.0004
 115377784.455 7  89904768.08046  21955660.075    21955660.014    21955659.307
        46.000          36.0004
 131082206.572 6 102141967.95542  24944110.077    24944111.087    24944111.224
        38.000          14.0004
 109495394.711 8  85321104.55347  20836270.166    20836269.711    20836269.960
        52.000          44.0004
 111506112.797 8  86887874.52746  21218896.833    21218893.962    21218896.127
        48.000          38.0004
 119060687.639 7  92774553.85844  22656488.853    22656485.685    22656487.522
        45.000          29.0004
 115829492.902 8  90256756.86845  22041611.991    22041608.223    22041610.835
        48.000          35.0004
 108054054.998 8  84197977.21047  20561991.303    20561991.040    20561991.242
        52.000          46.0004
 119131470.876 7  92829707.86945  22669960.496    22669960.827    22669960.116
        44.000          30.0004
 17  9 19  0 14  0.0000000  0 10G04G24G27G31G10G14G21G18G32G08
 120031918.077 6  93531360.73344  22841315.622    22841314.179    22841314.763
        41.000          29.0004
 124720252.162 6  97184612.01744  23733471.996    23733473.514    23733472.824
        40.000          26.0004
 115431994.540 7  89947009.68246  21965976.138    21965976.554    21965975.321
        47.000          36.0004
 130978504.076 6 102061161.02342  24924377.033    24924377.165    24924376.900
        38.000          15.0004
 109510339.279 8  85332749.67347  20839114.097    20839113.301    20839113.779
        52.000          45.0004
 111448969.142 8  86843347.02246  21208022.538    21208019.778    21208021.788
        48.000          38.0004
 119132965.876 7  92830874.52445  22670242.455    22670239.719    22670241.423
        43.000          30.0004
 115871346.520 7  90289370.07145  22049576.246    22049572.469    22049575.100
        47.000          35.0004
 108025317.877 8  84175584.65447  20556522.861    20556522.450    20556522.768
        52.000          46.0004
 119121508.911 7  92821945.29445  22668065.068    22668065.279    22668064.581
        44.000          31.0004
 17  9 19  0 14 30.0000000  0 10G04G24G27G31G10G14G21G18G32G08
 120108316.442 7  93590891.89044  22855853.813    22855852.639    22855852.700
        43.000          29.0004
 124760776.727 6  97216189.57344  23741184.092    23741184.619    23741184.111
        40.000          26.0004
 115486651.739 7  89989599.68146  21976376.833    21976377.445    21976376.104
        47.000          36.0004
 130874661.508 6 101980244.92742  24904615.618    24904615.669    24904616.616
        37.000          15.0004
 109525454.861 8  85344528.04547  20841990.099    20841989.727    20841990.088
        51.000          44.0004
 111392250.636 7  86799150.80146  21197229.893    21197226.901    21197228.901
        46.000          39.0004
 119205567.222 7  92887446.96045  22684058.773    22684055.225    22684057.424
        45.000          30.0004
 115913291.851 8  90322054.72445  22057558.095    22057554.600    22057556.859
        48.000          35.0004
 107997072.679 9  84153575.41447  20551147.766    20551147.295    20551147.811
        54.000          46.0004
 119112105.035 7  92814617.58645  22666275.347    22666275.706    22666274.842
        43.000          31.0004
 17  9 19  0 15  0.0000000  0 10G04G24G27G31G10G14G21G18G32G08
 120184969.878 7  93650621.80044  22870440.594    22870439.486    22870439.893
        43.000          29.0004
 124801825.494 7  97248175.61544  23748996.234    23748996.539    23748995.345
        42.000          26.0004
 115541754.346 7  90032536.74846  21986862.813    21986863.007    21986862.072
        46.000          36.0004
 130770682.582 6 101899222.59142  24884829.446    24884828.921    24884829.415
        38.000          16.0004
 109540742.095 8  85356440.17347  20844899.561    20844898.964    20844899.059
        52.000          44.0004
 111335959.235 8  86755287.39346  21186517.599    21186514.880    21186516.769
        49.000          38.0004
 119278491.483 7  92944271.01545  22697935.344    22697932.343    22697934.095
        44.000          30.0004
 115955329.838 7  90354811.57045  22065557.597    22065553.943    22065556.430
        47.000          34.0004
 107969320.136 8  84131950.06047  20545866.802    20545866.278    20545866.756
        53.000          46.0004
 119103259.674 7  92807725.08545  22664591.869    22664592.153    22664591.476
        43.000          30.0004
 17  9 19  0 15 30.0000000  0 10G04G24G27G31G10G14G21G18G32G08
 120261874.597 7  93710547.51344  22885075.201    22885074.195    22885074.641
        44.000          29.0004
 124843396.535 6  97280568.63644  23756906.961    23756907.242    23756906.598
        41.000          26.0004
 115597299.100 7  90075818.34746  21997432.787    21997432.710    21997432.308
        46.000          36.0004
 130666569.097 6 101818095.36142  24865016.774    24865017.265    24865016.833
        38.000          16.0004
 109556200.070 8  85368485.35247  20847840.826    20847840.675    20847840.542
        51.000          44.0004
 111280094.878 8  86711756.74146  21175887.123    21175884.391    21175886.323
        49.000          39.0004
 119351737.332 7  93001345.66345  22711873.646    22711870.951    22711872.159
        44.000          30.0004
 115997460.160 7  90387640.38845  22073575.135    22073571.036    22073573.895
        47.000          34.0004
 107942059.437 8  84110707.95947  20540679.423    20540678.655    20540679.239
        53.000          46.0004
 119094972.318 7  92801267.39245  22663015.184    22663015.295    22663014.425
        43.000          30.0004
 17  9 19  0 16  0.0000000  0 10G04G24G27G31G10G14G21G18G32G08
 120339028.339 7  93770667.26844  22899757.585    22899755.733    22899756.947
        44.000          29.0004
 124885489.418 7  97313368.28244  23764916.274    23764917.795    23764916.272
        42.000          26.0004
 115653283.987 7  90119442.90246  22008086.444    22008086.287    22008085.756
        46.000          36.0004
 130562323.719 6 101736865.34542  24845180.547    24845180.353    24845180.541
        39.000          17.0004
 109571829.146 8  85380663.85147  20850815.118    20850814.749    20850814.758
        52.000          44.0004
 111224658.836 8  86668559.84446  21165337.992    21165335.127    21165337.102
        48.000          39.0004
 119425304.304 7  93058670.53045  22725873.311    22725870.495    22725872.066
        44.000          30.0004
 116039683.311 8  90420541.54145  22081609.307    22081606.095    22081608.418
        48.000          34.0004
 107915290.964 8  84089849.41347  20535585.535    20535584.900    20535585.435
        53.000          46.0004
 119087243.174 7  92795244.67245  22661544.839    22661545.016    22661544.015
        44.000          31.0004
 17  9 19  0 16 30.0000000  0 10G04G24G27G31G10G14G21G18G32G08
 120416428.151 7  93830978.76944  22914485.739    22914484.562    22914485.350
        44.000          29.0004
 124928103.280 6  97346573.89144  23773026.110    23773026.695    23773025.346
        41.000          26.0004
 115709706.437 7  90163408.41646  22018823.002    22018823.117    22018822.834
        46.000          36.0004
 130457949.276 6 101655534.74543  24825319.909    24825318.219    24825318.579
        40.000          18.0004
 109587629.212 8  85392975.58447  20853821.805    20853821.175    20853821.612
        52.000          44.0004
 111169651.960 8  86625697.36346  21154870.246    21154867.691    21154869.571
        49.000          39.0004
 119499191.004 7  93116244.53945  22739933.357    22739930.342    22739932.362
        45.000          30.0004
 116081999.744 8  90453515.37045  22089662.231    22089658.786    22089661.431
        48.000          34.0004
 107889014.596 9  84069374.33447  20530585.263    20530584.685    20530585.135
        54.000          47.0004
 119080071.874 7  92789656.64645  22660179.899    22660179.997    22660179.164
        44.000          31.0004
 17  9 19  0 17  0.0000000  0 11G04G24G27G11G31G10G14G21G18G32G08
 120494070.657 7  93891479.38344  22929260.885    22929258.856    22929260.136
        43.000          28.0004
 124971236.278 6  97380184.03044  23781234.191    23781234.601    23781233.668
        41.000          26.0004
 115766563.615 7  90207712.69245  22029642.560    22029642.101    22029642.251
        46.000          35.0004
 130155346.654 6 101419750.47742  24767738.218    24767738.581    24767736.571
        37.000          13.0004
 130353448.052 6 101574105.31743  24805433.454    24805432.083    24805431.749
        39.000          18.0004
 109603599.858 8  85405420.24147  20856861.007    20856860.152    20856860.844
        51.000          44.0004
 111115074.624 8  86583169.58046  21144484.430    21144481.931    21144483.674
        48.000          38.0004
 119573396.537 7  93174066.99844  22754054.558    22754051.604    22754053.330
        45.000          29.0004
 116124409.236 7  90486561.72545  22097732.727    22097728.807    22097732.014
        46.000          34.0004
 107863229.942 9  84049282.41147  20525678.639    20525677.998    20525678.449
        54.000          46.0004
 119073458.305 7  92784503.20345  22658921.543    22658921.641    22658920.822
        44.000          31.0004
 17  9 19  0 17 30.0000000  0 11G04G24G27G11G31G10G14G21G18G32G08
 120571954.051 7  93952167.71644  22944080.762    22944079.929    22944080.232
        43.000          28.0004
 125014888.451 6  97414198.70444  23789540.350    23789541.570    23789540.572
        41.000          26.0004
 115823853.968 7  90252354.49745  22040545.066    22040543.910    22040544.721
        45.000          35.0004
 130048060.919 6 101336151.20642  24747321.768    24747318.837    24747321.668
        36.000          14.0004
 130248823.665 6 101492579.95342  24785522.702    24785522.152    24785521.028
        38.000          16.0004
 109619741.999 8  85417998.52847  20859932.881    20859931.937    20859932.574
        53.000          44.0004
 111060928.608 8  86540977.90546  21134180.863    21134178.222    21134179.873
        48.000          39.0004
 119647920.825 7  93232137.82744  22768235.855    22768233.231    22768234.924
        44.000          29.0004
 116166912.876 8  90519681.43445  22105820.460    22105817.195    22105819.443
        48.000          34.0004
 107837937.835 9  84029574.28847  20520865.513    20520865.020    20520865.590
        54.000          46.0004
 119067402.574 7  92779784.44145  22657769.251    22657768.925    22657768.687
        44.000          31.0004
 17  9 19  0 18  0.0000000  0 11G04G24G27G11G31G10G14G21G18G32G08
 120650075.016 7  94013041.14644  22958946.199    22958945.787    22958945.713
        43.000          27.0004
 125059058.502 7  97448616.90844  23797946.026    23797946.506    23797945.834
        43.000          27.0004
 115881574.690 8  90297331.66046  22051528.990    22051528.167    22051528.517
        48.000          36.0004
 129940954.044 6 101252691.30242  24726940.214    24726937.677    24726939.876
        37.000          14.0004
 130144078.679 6 101410960.59642  24765590.607    24765590.052    24765588.817
        38.000          15.0004
 109636055.261 8  85430710.16247  20863036.786    20863036.513    20863036.322
        51.000          44.0004
 111007214.286 8  86499122.60646  21123958.809    21123956.543    21123958.215
        48.000          38.0004
 119722762.365 7  93290455.86444  22782477.714    22782475.314    22782476.952
        43.000          29.0004
 116209510.927 7  90552874.69845  22113926.461    22113923.635    22113925.702
        47.000          34.0004
 107813137.900 9  84010249.67647  20516146.257    20516145.842    20516146.521
        54.000          47.0004
 119061904.560 7  92775500.26145  22656723.294    22656722.859    22656722.697
        42.000          31.0004
 17  9 19  0 18 30.0000000  0 11G04G24G27G11G31G10G14G21G18G32G08
 120728430.290 7  94074097.15944  22973857.472    22973856.735    22973856.129
        43.000          27.0004
 125103744.389 6  97483437.07744  23806448.604    23806449.583    23806448.749
        41.000          27.0004
 115939722.672 7  90342641.74745  22062593.986    22062593.522    22062593.642
        46.000          35.0004
 129834028.456 6 101169372.66342  24706593.321    24706590.952    24706592.325
        37.000          15.0004
 130039214.915 6 101329248.66842  24745636.258    24745634.385    24745634.820
        37.000          14.0004
 109652539.073 8  85443554.69147  20866173.568    20866173.289    20866173.106
        51.000          44.0004
 110953932.637 8  86457604.44846  21113819.993    21113817.635    21113819.213
        48.000          39.0004
 119797919.898 7  93349020.13944  22796779.884    22796777.015    22796778.891
        43.000          28.0004
 116252202.999 7  90586141.23845  22122050.992    22122047.343    22122050.237
        47.000          34.0004
 107788829.442 8  83991308.03247  20511520.869    20511520.038    20511520.931
        53.000          46.0004
 119056963.323 7  92771649.94845  22655782.310    22655782.583    22655782.038
        43.000          30.0004
 17  9 19  0 19  0.0000000  0 11G04G24G27G11G31G10G14G21G18G32G08
 120807016.735 7  94135333.31744  22988811.721    22988810.978    22988810.944
        43.000          27.0004
 125148945.042 7  97518658.36844  23815050.576    23815050.522    23815049.779
        42.000          26.0004
 115998295.168 7  90388282.62945  22073740.350    22073739.382    22073739.817
        47.000          35.0004
 129727286.237 6 101086196.93342  24686281.037    24686277.937    24686280.027
        37.000          16.0004
 129934234.632 5 101247445.89942  24725658.241    24725656.056    24725655.905
        32.000          14.0004
 109669193.189 8  85456531.91747  20869343.005    20869342.380    20869342.611
        51.000          44.0004
 110901083.274 8  86416423.15046  21103763.196    21103760.452    21103762.338
        49.000          38.0004
 119873392.383 7  93407829.81344  22811142.290    22811139.239    22811141.066
        44.000          28.0004
 116294989.052 7  90619481.00645  22130192.369    22130189.304    22130191.623
        46.000          33.0004
 107765012.095 9  83972749.06847  20506988.518    20506987.685    20506988.524
        54.000          46.0004
 119052578.770 7  92768233.40045  22654948.367    22654948.011    22654947.582
        44.000          30.0004
 17  9 19  0 19 30.0000000  0 11G04G24G27G11G31G10G14G21G18G32G08
 120885830.843 7  94196746.86544  23003810.486    23003808.597    23003809.547
        43.000          27.0004
 125194658.849 7  97554279.51144  23823749.672    23823750.356    23823748.940
        43.000          25.0004
 116057289.178 7  90434251.95745  22084965.966    22084965.817    22084965.641
        45.000          35.0004
 129620730.124 6 101003166.22642  24666003.289    24666001.025    24666002.725
        37.000          16.0004
 129829140.233 5 101165554.31641  24705655.859    24705657.756    24705655.962
        31.000          10.0004
 109686017.099 8  85469641.45247  20872543.995    20872543.717    20872543.853
        52.000          44.0004
 110848666.906 8  86375579.24246  21093788.792    21093785.862    21093788.026
        49.000          39.0004
 119949178.045 6  93466883.53044  22825562.761    22825560.759    22825561.927
        41.000          28.0004
 116337868.960 7  90652893.90145  22138352.363    22138349.077    22138351.162
        45.000          34.0004
 107741685.296 8  83954572.34547  20502549.280    20502548.801    20502549.232
        53.000          46.0004
 119048749.615 7  92765249.62845  22654218.980    22654219.784    22654218.815
        43.000          30.0004
 17  9 19  0 20  0.0000000  0 11G04G24G27G11G31G10G14G21G18G32G08
 120964870.928 7  94258336.50944  23018851.768    23018849.514    23018850.708
        45.000          28.0004
 125240885.882 6  97590300.55444  23832546.699    23832547.242    23832546.399
        41.000          25.0004
 116116703.153 7  90480548.53945  22096272.156    22096272.095    22096271.196
        46.000          35.0004
 129514363.399 6 100920283.07742  24645761.136    24645759.159    24645762.086
        36.000          16.0004
 129723935.659 5 101083576.90741  24685638.245    24685639.768    24685637.204
        34.000           7.0004
 109703011.863 8  85482884.12047  20875778.054    20875777.858    20875778.021
        51.000          45.0004
 110796685.195 7  86335074.03246  21083897.076    21083893.902    21083896.280
        47.000          39.0004
 120025277.318 7  93526181.62744  22840044.426    22840041.932    22840043.122
        43.000          28.0004
 116380844.123 8  90686381.03145  22146530.174    22146527.006    22146529.537
        48.000          34.0004
 107718849.852 8  83936778.50447  20498203.451    20498203.317    20498203.446
        51.000          46.0004
 119045476.539 7  92762699.17345  22653596.752    22653596.714    22653596.120
        43.000          31.0004
 17  9 19  0 20 30.0000000  0 11G04G24G27G11G31G10G14G21G18G32G08
 121044134.402 7  94320100.23644  23033934.485    23033933.294    23033934.147
        43.000          28.0004
 125287625.041 7  97626720.67844  23841441.638    23841441.309    23841441.429
        42.000          25.0004
 116176534.954 7  90527170.70845  22107657.180    22107657.618    22107656.637
        45.000          35.0004
 129408189.577 6 100837550.24842  24625558.286    24625555.575    24625557.556
        36.000          15.0004
 129618624.188 6 101001516.18942  24665600.608    24665599.240    24665600.257
        37.000          12.0004
 109720177.882 8  85496260.23347  20879045.019    20879044.428    20879044.715
        52.000          44.0004
 110745139.461 8  86294908.54546  21074088.196    21074085.237    21074087.400
        49.000          39.0004
 120101689.635 7  93585723.65344  22854585.127    22854582.862    22854583.836
        43.000          27.0004
 116423915.346 7  90719943.01545  22154726.558    22154723.164    22154725.298
        47.000          33.0004
 107696506.043 8  83919367.75247  20493951.880    20493951.386    20493951.691
        53.000          46.0004
 119042759.607 7  92760582.07845  22653079.841    22653080.190    22653079.489
        44.000          31.0004
 17  9 19  0 21  0.0000000  0 11G04G24G27G11G31G10G14G21G18G32G08
 121123617.305 7  94382034.92744  23049059.886    23049058.830    23049059.485
        43.000          28.0004
 125334873.747 7  97663537.84444  23850432.392    23850432.210    23850431.994
        43.000          26.0004
 116236780.763 7  90574115.46745  22119122.183    22119121.839    22119121.552
        46.000          35.0004
 129302210.074 6 100754968.85542  24605391.578    24605388.476    24605390.244
        37.000          16.0004
 129513207.034 6 100919373.04342  24645543.294    24645539.286    24645541.388
        39.000          16.0004
 109737513.963 8  85509768.86347  20882343.640    20882343.365    20882343.540
        51.000          44.0004
 110694029.257 8  86255082.42746  21064362.073    21064358.950    21064361.404
        48.000          39.0004
 120178412.624 7  93645507.75344  22869185.083    22869182.524    22869183.956
        43.000          28.0004
 116467081.730 7  90753579.13245  22162940.785    22162937.411    22162939.815
        47.000          33.0004
 107674652.438 9  83902338.97447  20489793.533    20489792.870    20489793.359
        54.000          46.0004
 119040597.911 7  92758897.63345  22652668.353    22652668.902    22652667.878
        43.000          31.0004
 17  9 19  0 21 30.0000000  0 11G04G24G27G11G31G10G14G21G18G32G08
 121203316.870 6  94444138.45444  23064225.663    23064225.367    23064225.742
        41.000          28.0004
 125382631.240 7  97700751.46244  23859519.187    23859519.964    23859518.864
        42.000          26.0004
 116297438.176 7  90621380.95645  22130665.015    22130664.937    22130664.495
        44.000          35.0004
 129196427.894 6 100672541.19942  24585261.718    24585258.410    24585260.875
        38.000          16.0004
 129407687.643 6 100837150.23342  24625462.356    24625459.902    24625461.912
        40.000          17.0004
 109755020.260 8  85523410.12647  20885675.188    20885674.654    20885674.946
        51.000          44.0004
 110643355.466 8  86215596.37546  21054719.290    21054716.275    21054718.596
        49.000          39.0004
 120255445.626 7  93705533.43044  22883843.883    22883841.523    22883842.791
        44.000          28.0004
 116510343.652 7  90787289.70945  22171173.445    22171169.753    22171172.494
        45.000          33.0004
 107653289.007 8  83885692.14947  20485728.079    20485727.640    20485728.046
        53.000          46.0004
 119038990.654 7  92757645.21445  22652362.809    22652362.818    22652362.022
        44.000          31.0004
 17  9 19  0 22  0.0000000  0 11G04G24G27G11G31G10G14G21G18G32G08
 121283230.590 7  94506408.82444  23079433.106    23079432.602    23079432.280
        43.000          28.0004
 125430896.386 7  97738360.66144  23868704.001    23868704.644    23868703.222
        42.000          26.0004
 116358504.820 7  90668965.32445  22142285.061    22142285.348    22142284.802
        46.000          35.0004
 129090846.096 6 100590269.69842  24565170.329    24565167.316    24565169.907
        39.000          16.0004
 129302068.182 6 100754849.46443  24605362.111    24605361.738    24605362.783
        38.000          21.0004
 109772697.052 8  85537184.24547  20889039.154    20889038.431    20889038.890
        52.000          44.0004
 110593118.878 8  86176450.99846  21045159.753    21045156.629    21045158.990
        48.000          39.0004
 120332787.341 7  93765799.65144  22898561.984    22898559.100    22898560.764
        44.000          28.0004
 116553701.976 7  90821075.41545  22179423.397    22179420.557    22179422.742
        47.000          33.0004
 107632415.750 8  83869427.28647  20481755.817    20481755.652    20481755.826
        53.000          46.0004
 119037937.809 7  92756824.80545  22652162.801    22652162.470    22652161.799
        45.000          31.0004
 17  9 19  0 22 30.0000000  0 11G04G24G27G11G31G10G14G21G18G32G08
 121363354.743 7  94568843.18144  23094679.806    23094679.520    23094679.028
        42.000          28.0004
 125479667.446 7  97776364.07244  23877984.940    23877985.512    23877984.942
        42.000          26.0004
 116419977.340 7  90716865.97545  22153983.290    22153983.274    22153982.832
        46.000          35.0004
 128985466.756 6 100508155.93742  24545116.294    24545114.250    24545116.871
        38.000          17.0004
 129196351.104 6 100672472.62443  24585244.462    24585244.352    24585244.118
        39.000          19.0004
 109790543.660 8  85551090.68547  20892434.914    20892434.717    20892434.828
        52.000          44.0004
 110543319.206 8  86137646.07746  21035683.383    21035680.066    21035682.609
        50.000          40.0004
 120410436.348 7  93826305.33044  22913337.523    22913335.150    22913336.786
        43.000          28.0004
 116597156.162 8  90854935.81445  22187693.161    22187690.104    22187692.419
        48.000          33.0004
 107612031.720 8  83853543.63647  20477876.672    20477876.637    20477876.768
        53.000          47.0004
 119037438.009 7  92756435.33645  22652066.893    22652067.690    22652066.621
        44.000          31.0004
 17  9 19  0 23  0.0000000  0 11G04G24G27G11G31G10G14G21G18G32G08
 121443686.914 6  94631439.63344  23109966.904    23109966.011    23109965.344
        41.000          27.0004
 125528943.574 6  97814761.03944  23887361.360    23887362.663    23887361.981
        39.000          25.0004
 116481853.657 7  90765081.26545  22165757.854    22165757.867    22165757.277
        45.000          35.0004
 128880293.290 6 100426202.60342  24525102.812    24525100.260    24525102.516
        39.000          17.0004
 129090539.996 6 100590022.49443  24565110.999    24565108.775    24565109.898
        41.000          20.0004
 109808560.613 8  85565129.86047  20895863.574    20895863.241    20895863.287
        52.000          44.0004
 110493957.959 8  86099182.78846  21026289.840    21026287.047    21026289.246
        49.000          40.0004
 120488392.157 7  93887050.06044  22928172.794    22928169.759    22928171.403
        43.000          28.0004
 116640707.157 7  90888871.63745  22195981.142    22195977.587    22195980.013
        47.000          33.0004
 107592137.138 8  83838041.37547  20474091.016    20474090.830    20474091.107
        53.000          46.0004
 119037491.463 7  92756476.97945  22652077.077    22652077.903    22652076.875
        44.000          30.0004
 17  9 19  0 23 30.0000000  0 11G04G24G27G11G31G10G14G21G18G32G08
 121524223.945 6  94694195.72144  23125291.992    23125291.531    23125291.589
        41.000          27.0004
 125578722.847 6  97853550.08543  23896834.735    23896835.339    23896833.919
        39.000          23.0004
 116544130.887 7  90813608.93445  22177609.212    22177608.922    22177608.528
        46.000          35.0004
 128775327.825 6 100344411.35142  24505128.896    24505126.024    24505129.034
        38.000          17.0004
 128984637.103 6 100507500.83443  24544956.624    24544956.758    24544956.450
        40.000          20.0004
 109826747.743 8  85579301.64747  20899324.480    20899324.054    20899324.345
        53.000          44.0004
 110445035.414 8  86061061.34346  21016980.592    21016977.121    21016979.489
        48.000          39.0004
 120566653.585 7  93948032.93944  22943065.074    22943062.181    22943063.873
        43.000          28.0004
 116684354.883 8  90922882.83945  22204286.763    22204283.318    22204285.580
        48.000          33.0004
 107572731.516 8  83822920.11747  20470398.410    20470398.079    20470398.464
        53.000          46.0004
 119038097.921 7  92756949.52945  22652192.222    22652193.127    22652191.772
        44.000          30.0004
 17  9 19  0 24  0.0000000  0 11G04G24G27G11G31G10G14G21G18G32G08
 121604962.974 6  94757109.20844  23140656.416    23140655.390    23140655.567
        41.000          27.0004
 125629004.511 6  97892730.59343  23906402.675    23906404.172    23906402.078
        41.000          23.0004
 116606806.265 7  90862446.86645  22189535.864    22189535.312    22189535.100
        45.000          35.0004
 128670573.521 6 100262784.65043  24485194.675    24485192.446    24485194.613
        39.000          18.0004
 128878645.221 6 100424909.82543  24524786.491    24524787.267    24524786.185
        40.000          19.0004
 109845104.976 8  85593605.97847  20902817.669    20902817.411    20902817.549
        50.000          44.0004
 110396552.254 8  86023282.27746  21007754.241    21007751.176    21007753.430
        50.000          39.0004
 120645219.325 7  94009252.94444  22958015.126    22958013.226    22958014.359
        43.000          28.0004
 116728099.564 7  90956969.58945  22212610.652    22212607.349    22212609.869
        47.000          33.0004
 107553814.447 8  83808179.55047  20466798.496    20466798.256    20466798.541
        52.000          47.0004
 119039256.193 7  92757852.07745  22652413.278    22652413.688    22652412.341
        45.000          30.0004
 17  9 19  0 24 30.0000000  0 11G04G24G27G11G31G10G14G21G18G32G08
 121685901.062 6  94820177.80944  23156059.383    23156057.370    23156058.143
        41.000          27.0004
 125679786.591 7  97932301.03044  23916067.122    23916067.802    23916066.442
        42.000          24.0004
 116669877.090 7  90911592.93645  22201537.941    22201537.329    22201537.275
        45.000          34.0004
 128566032.869 6 100181324.44243  24465300.204    24465299.029    24465300.635
        38.000          18.0004
 128772567.008 6 100342251.54043  24504600.892    24504601.075    24504600.838
        40.000          20.0004
 109863632.335 8  85608042.88047  20906343.032    20906342.928    20906342.874
        50.000          44.0004
 110348509.096 8  85985846.06946  20998611.901    20998608.784    20998611.091
        48.000          40.0004
 120724088.345 7  94070709.27544  22973023.793    22973021.755    22973022.784
        43.000          28.0004
 116771941.767 7  90991132.33845  22220954.212    22220950.058    22220953.026
        46.000          33.0004
 107535385.610 8  83793819.42647  20463291.480    20463291.408    20463291.678
        53.000          47.0004
 119040966.000 7  92759184.37645  22652738.161    22652738.890    22652738.189
        45.000          30.0004
 17  9 19  0 25  0.0000000  0 11G04G24G27G11G31G10G14G21G18G32G08
 121767035.286 7  94883399.25444  23171497.820    23171496.906    23171497.283
        42.000          26.0004
