     2.11           OBSERVATION DATA    G (GPS)             RINEX VERSION / TYPE
teqc  2017Sep15     UNAVCO Archive Ops  20170920 11:46:09UTCPGM / RUN BY / DATE
Solaris x86 5.10|AMD64|cc SC5.8 -xarch=amd64|=+|=+          COMMENT
BIT 2 OF LLI FLAGS DATA COLLECTED UNDER A/S CONDITION       COMMENT
LBCH                                                        MARKER NAME
40482M001                                                   MARKER NUMBER
Ken Hudnut          U.S. Geological Survey                  OBSERVER / AGENCY
4927175270          TRIMBLE NETRS       1.2-5               REC # / TYPE / VERS
CR13574             ASH700936D_M    SCIS                    ANT # / TYPE
 -2507798.7984 -4676369.6918  3526890.8008                  APPROX POSITION XYZ
        0.0000        0.0000        0.0000                  ANTENNA: DELTA H/E/N
     1     1                                                WAVELENGTH FACT L1/2
     7    L1    L2    C1    P2    P1    S1    S2            # / TYPES OF OBSERV
    30.0000                                                 INTERVAL
    18                                                      LEAP SECONDS
input file: lbch201709190000a.dat                           COMMENT
Forced Modulo Decimation to 30 seconds                      COMMENT
RINEX file created by UNAVCO GPS Archive.                   COMMENT
For more information contact archive-gps@unavco.org         COMMENT
Monument ID: 19507                                          COMMENT
UNAVCO 4-char name:   LBCH                                  COMMENT
4-char name from Log or data file: LBCH                     COMMENT
Monument location: 33.78776997 -118.20334361 -27.5846       COMMENT
Visit ID: 97554                                             COMMENT
doi:10.7283/T5X928JJ                                        COMMENT
End of DB comments                                          COMMENT
 SNR is mapped to RINEX snr flag value [0-9]                COMMENT
  L1 & L2: min(max(int(snr_dBHz/6), 0), 9)                  COMMENT
  2017     9    19     0     0    0.0000000     GPS         TIME OF FIRST OBS
                                                            END OF HEADER
 17  9 19  0  0  0.0000000  0  8G10G14G32G18G27G24G21G08
 -20622868.47748 -15007348.30046  20779247.2034   20779237.1954
        50.5004         40.0004
 -12857231.22747  -8153007.34245  21532815.2194   21532803.1024
        45.2504         31.7504
 -25332575.43448 -19129342.93946  20739474.0944   20739464.1454
        51.2504         41.7504
 -13840367.45947  -9839669.63945  21840856.5394   21840843.0744
        44.5004         33.0004
 -18849193.62947 -14329652.54745  21705262.6724   21705252.7814
        45.2504         35.0004
   3034782.78546   2351590.86343  23568396.4614   23568387.5084
        40.5004         21.2504
 -15298152.15647 -11617630.70144  22303583.9844   22303571.3404
        43.5004         29.0004
 -11945625.79947  -9289463.76244  22764372.8204   22764363.5744
        43.0004         26.7504
 17  9 19  0  0 30.0000000  0  8G10G14G32G18G27G24G21G08
 -20612540.40748 -14999300.46246  20781212.5864   20781202.4614
        50.5004         40.5004
 -12925218.62647  -8205984.49845  21519877.3524   21519865.7034
        45.5004         33.0004
 -25374216.24748 -19161790.31847  20731550.0634   20731540.2894
        52.2504         42.2504
 -13801013.84847  -9809004.50345  21848345.1024   21848332.3984
        46.2504         33.0004
 -18808278.19847 -14297770.41445  21713049.0784   21713039.0124
        46.7504         35.5004
   3060535.67846   2371658.05743  23573296.1484   23573288.2504
        39.5004         22.2504
 -15235168.50447 -11568552.55044  22315569.6724   22315556.3834
        43.7504         29.2504
 -11970943.11046  -9309191.53444  22759554.6884   22759545.8524
        41.0004         26.0004
 17  9 19  0  1  0.0000000  0  8G10G14G32G18G27G24G21G08
 -20602035.46548 -14991114.79546  20783211.1174   20783201.5204
        49.2504         40.0004
 -12992806.56647  -8258650.41245  21507016.8444   21507003.9064
        45.2504         33.0004
 -25415368.53848 -19193857.02046  20723719.1024   20723709.2114
        51.7504         41.5004
 -13761572.00147  -9778270.60545  21855851.5004   21855837.3914
        45.7504         34.0004
 -18766852.40147 -14265490.59646  21720931.8754   21720921.7504
        45.7504         36.5004
   3086833.77446   2392150.06943  23578300.7584   23578291.9804
        38.0004         20.5004
 -15171839.26747 -11519205.12144  22327620.9694   22327607.8554
        44.5004         28.0004
 -11995706.44547  -9328487.63344  22754843.5474   22754833.1884
        42.0004         28.2504
 17  9 19  0  1 30.0000000  0  9G31G10G14G32G18G27G24G21G08
    498352.36115                  25393458.430
        32.250
 -20591355.40648 -14982792.67846  20785244.0864   20785233.6684
        50.2504         40.0004
 -13059995.20847  -8311005.16645  21494230.5004   21494218.4414
        44.7504         33.0004
 -25456033.26548 -19225543.81747  20715980.5784   20715971.0394
        51.5004         42.0004
 -13722042.69747  -9747468.54845  21863372.8834   21863360.0044
        47.5004         32.0004
 -18724919.68547 -14232815.76845  21728911.3984   21728901.2734
        46.5004         35.0004
   3113674.41446   2413064.86543  23583409.3674   23583400.3554
        39.5004         20.7504
 -15108166.30447 -11469589.84944  22339737.4614   22339723.9384
        44.7504         29.7504
 -12019916.95146  -9347352.96744  22750236.2274   22750226.3364
        41.7504         27.0004
 17  9 19  0  2  0.0000000  0 10G11G31G10G14G32G18G27G24G21G08
    483414.91714                  25402613.789
        29.500
    398766.608 5                  25374507.156
        34.250
 -20580500.50448 -14974334.30946  20787309.4144   20787299.7584
        50.0004         40.0004
 -13126783.19947  -8363047.73945  21481520.7584   21481508.8754
        45.0004         32.5004
 -25496210.00848 -19256850.35447  20708335.7664   20708325.5234
        52.0004         42.0004
 -13682426.12547  -9716598.50745  21870911.8054   21870898.5744
        47.0004         33.0004
 -18682482.05147 -14199747.50045  21736986.5634   21736976.9654
        46.5004         35.0004
   3141057.03446   2434401.99943  23588620.2974   23588610.7584
        38.5004         20.5004
 -15044150.65847 -11419707.55344  22351919.6414   22351906.0594
        44.7504         29.0004
 -12043574.21946  -9365787.20944  22745734.2194   22745725.3244
        41.5004         28.5004
 17  9 19  0  2 30.0000000  0 10G11G31G10G14G32G18G27G24G21G08
    371972.519 4                  25381407.234
        29.500
                                  25355518.414
        31.250
 -20569469.84448 -14965738.99746  20789408.4304   20789398.7154
        50.7504         40.7504
 -13193168.08047  -8414776.20145  21468889.4454   21468876.6254
        44.7504         33.0004
 -25535897.17348 -19287775.41247  20700783.4384   20700773.3714
        52.5004         42.5004
 -13642720.86147  -9685659.35045  21878468.0394   21878454.3404
        45.7504         32.2504
 -18639540.34247 -14166286.45345  21745158.3914   21745148.4414
        44.5004         35.0004
   3168982.67846   2456162.27243  23593934.3524   23593924.3444
        38.0004         20.5004
 -14979791.50747 -11369557.60644  22364165.9454   22364153.1254
        44.2504         27.5004
 -12066676.61146  -9383789.06644  22741337.9774   22741328.8484
        41.0004         26.5004
 17  9 19  0  3  0.0000000  0 10G11G31G10G14G32G18G27G24G21G08
                                  25360218.516
        28.750
    199006.02815                  25336493.750
        33.750
 -20558270.58148 -14957012.29646  20791539.6174   20791529.7854
        50.0004         40.0004
 -13259155.53647  -8466194.97745  21456331.5164   21456319.0474
        46.2504         32.5004
 -25575101.23348 -19318324.02647  20693322.9304   20693313.0984
        52.0004         42.0004
 -13602933.69847  -9654656.37645  21886038.2344   21886025.7074
        46.7504         32.5004
 -18596103.51747 -14132439.59845  21753424.0164   21753413.9494
        46.0004         34.7504
   3197444.16246   2478340.09843  23599348.5864   23599340.6884
        38.7504         20.2504
 -14915095.72947 -11319145.33644  22376477.1414   22376464.3794
        44.2504         28.7504
 -12089230.10546  -9401363.20244  22737045.9144   22737036.7854
        41.0004         26.5004
 17  9 19  0  3 30.0000000  0 10G11G31G10G14G32G18G27G24G21G08
                                  25339049.094
        26.250
     98839.013 5                  25317430.961
        31.500
 -20546892.43948 -14948146.21046  20793705.0864   20793694.9614
        49.5004         40.5004
 -13324733.96447  -8517295.01945  21443852.5394   21443841.1844
        45.2504         32.5004
 -25613811.29248 -19348487.68447  20685956.6174   20685947.0784
        51.5004         42.2504
 -13563054.18747  -9623581.43845  21893627.2504   21893614.2544
        46.7504         31.2504
 -18552163.12947 -14098200.35745  21761785.7034   21761775.6954
        47.2504         35.2504
   3226451.40046   2500943.12743  23604870.5004   23604861.2544
        39.5004         21.5004
 -14850054.22847 -11268463.70444  22388853.7194   22388842.0124
        44.2504         28.0004
 -12111224.12646  -9418501.39644  22732860.6174   22732851.2544
        41.2504         26.5004
 17  9 19  0  4  0.0000000  0  9G31G10G14G32G18G27G24G21G08
     -1517.039 5                  25298333.180
        33.000
 -20535339.77448 -14939144.13546  20795902.9384   20795893.3984
        49.7504         41.0004
 -13389906.48547  -8568078.79045  21431450.5394   21431438.4804
        45.0004         34.0004
 -25652031.21448 -19378269.43847  20678683.3594   20678673.9384
        50.7504         42.5004
 -13523086.22047  -9592437.56945  21901233.2504   21901219.9614
        46.7504         31.5004
 -18507725.51347 -14063573.65845  21770241.5084   21770231.9104
        46.0004         34.0004
   3255999.63246   2523967.72443  23610491.2034   23610483.5394
        38.5004         19.7504
 -14784671.55447 -11217516.19244  22401295.5164   22401283.8094
        43.2504         28.2504
 -12132662.34846  -9435206.50744  22728780.6564   22728772.0554
        40.7504         26.5004
 17  9 19  0  4 30.0000000  0  9G31G10G14G32G18G27G24G21G08
   -102060.063 5                  25279202.500
        34.000
 -20523613.46648 -14930006.75046  20798134.4304   20798125.1254
        49.5004         40.5004
 -13454672.13047  -8618545.49745  21419125.5474   21419113.6644
        45.0004         34.0004
 -25689761.02048 -19407669.27246  20671503.9144   20671493.9064
        51.2504         41.7504
 -13483030.20847  -9561225.08745  21908854.9924   21908842.9344
        45.2504         32.2504
 -18462793.11347 -14028561.42245  21778792.4064   21778782.1644
        46.5004         35.0004
   3286087.69046   2547412.98743  23616217.7664   23616209.2814
        38.7504         18.5004
 -14718948.78547 -11166303.68344  22413802.2734   22413790.7424
        43.0004         29.0004
 -12153544.70546  -9451478.47644  22724807.1254   22724798.1134
        41.5004         26.5004
 17  9 19  0  5  0.0000000  0  9G31G10G14G32G18G27G24G21G08
   -202789.369 6                  25260033.688
        36.750
 -20511715.16748 -14920735.35946  20800398.5314   20800389.3444
        50.2504         40.0004
 -13519031.09447  -8668695.31945  21406878.6644   21406866.4304
        46.0004         32.7504
 -25727001.98248 -19436688.18946  20664416.6954   20664407.2734
        51.5004         41.0004
 -13442887.69847  -9529945.22445  21916494.7034   21916481.4144
        46.5004         31.7504
 -18417369.65947 -13993166.54545  21787435.7504   21787426.2114
        46.7504         34.5004
   3316713.70546   2571277.43342  23622045.2734   23622036.2624
        37.2504         17.7504
 -14652887.98947 -11114827.79244  22426374.2894   22426361.6454
        44.2504         28.7504
 -12173872.42946  -9467318.28544  22720939.0634   22720929.6994
        41.0004         25.5004
 17  9 19  0  5 30.0000000  0  9G31G10G14G32G18G27G24G21G08
   -303700.123 6                  25240830.719
        38.250
 -20499642.69448 -14911328.24646  20802696.1724   20802686.4574
        49.2504         39.7504
 -13582980.01647  -8718525.62945  21394709.4844   21394697.0164
        43.5004         33.5004
 -25763751.31148 -19465324.02047  20657423.7114   20657414.2894
        51.0004         42.0004
 -13402655.78247  -9498595.68145  21924150.3524   21924137.1804
        46.0004         31.5004
 -18371454.81847 -13957388.77545  21796172.9924   21796163.7464
        46.5004         34.7504
   3347879.79546   2595562.69943  23627976.1484   23627966.6684
        37.5004         18.2504
 -14586487.26047 -11063086.99844  22439009.8914   22438996.8954
        45.0004         28.5004
 -12193642.79446  -9482723.73844  22717176.3444   22717167.0984
        39.7504         25.2504
 17  9 19  0  6  0.0000000  0  9G31G10G14G32G18G27G24G21G08
   -404790.581 6                  25221592.563
        37.000
 -20487397.14548 -14901786.25246  20805025.9774   20805016.4384
        49.5004         40.2504
 -13646518.78547  -8768036.33445  21382618.1334   21382606.1334
        44.2504         33.5004
 -25800009.60848 -19493577.22447  20650524.2894   20650514.1644
        51.7504         42.0004
 -13362335.76147  -9467177.50445  21931822.9064   21931809.6174
        45.2504         31.0004
 -18325051.64447 -13921230.47845  21805003.2194   21804994.0314
        45.7504         34.0004
   3379584.14046   2620267.34743  23634008.7424   23633999.8484
        37.7504         18.2504
 -14519748.47647 -11011082.77744  22451709.8754   22451696.8794
        45.2504         28.2504
 -12212856.38346  -9497695.38444  22713519.7194   22713511.1764
        40.5004         25.5004
 17  9 19  0  6 30.0000000  0  9G31G10G14G32G18G27G24G21G08
   -506060.482 5                  25202321.320
        35.750
 -20474980.68348 -14892111.09046  20807388.8284   20807379.3484
        50.2504         40.5004
 -13709648.20547  -8817228.05945  21370605.1954   21370593.0784
        46.0004         33.7504
 -25835778.59248 -19521449.14946  20643717.3134   20643707.7734
        51.7504         41.5004
 -13321929.17447  -9435691.85545  21939511.8834   21939498.7114
        45.2504         31.0004
 -18278164.30547 -13884694.92245  21813925.0554   21813916.2774
        46.0004         34.0004
   3411824.34946   2645389.56342  23640145.1564   23640134.9144
        38.7504         17.7504
 -14452674.03447 -10958817.00844  22464473.3594   22464461.1254
        43.7504         27.7504
 -12231514.97246  -9512234.55244  22709969.8204   22709961.6294
        40.7504         27.2504
 17  9 19  0  7  0.0000000  0  9G31G10G14G32G18G27G24G21G08
   -607505.230 6                  25183016.516
        37.250
 -20462391.25648 -14882301.15046  20809784.9694   20809775.0204
        51.0004         40.0004
 -13772364.70347  -8866098.04145  21358670.8364   21358658.3094
        45.5004         33.5004
 -25871055.72348 -19548937.81247  20637004.3364   20636994.5044
        52.0004         42.2504
 -13281433.83347  -9404137.07645  21947218.2194   21947204.5784
        45.7504         31.2504
 -18230792.73947 -13847782.03045  21822940.3914   21822930.9104
        46.7504         34.0004
   3444601.70846   2670930.37743  23646383.9774   23646373.5004
        39.0004         18.5004
 -14385262.42947 -10906288.52044  22477301.6174   22477289.0314
        43.7504         28.2504
 -12249615.69246  -9526339.01644  22706525.6564   22706516.9384
        41.0004         26.2504
 17  9 19  0  7 30.0000000  0  9G31G10G14G32G18G27G24G21G08
   -709123.404 6                  25163679.164
        36.750
 -20449629.96448 -14872357.28046  20812213.4774   20812203.4104
        50.7504         40.5004
 -13834668.32747  -8914646.30345  21346814.4454   21346802.7974
        45.5004         34.0004
 -25905841.66048 -19576043.72747  20630384.5554   20630374.9574
        52.0004         42.0004
 -13240850.08047  -9372513.37245  21954940.4614   21954927.7584
        45.0004         30.7504
 -18182940.02547 -13810494.22345  21832046.1884   21832036.7664
        47.2504         33.7504
   3477914.90946   2696888.71143  23652723.1254   23652712.4734
        39.2504         18.5004
 -14317514.91447 -10853498.28944  22490193.4304   22490180.9024
        43.2504         26.7504
 -12267159.29646  -9540009.34644  22703186.3054   22703178.2304
        40.7504         26.5004
 17  9 19  0  8  0.0000000  0  9G31G10G14G32G18G27G24G21G08
   -810911.980 6                  25144310.516
        38.000
 -20436696.44048 -14862279.22046  20814674.6094   20814664.5434
        50.5004         40.7504
 -13896556.93847  -8962871.16745  21335038.0864   21335025.7934
        45.7504         34.2504
 -25940135.56448 -19602766.24846  20623858.8914   20623849.0594
        51.5004         41.5004
 -13200177.44047  -9340820.41845  21962680.9224   21962668.1024
        43.0004         31.2504
 -18134607.82547 -13772832.79145  21841244.1334   21841233.8914
        46.7504         34.2504
   3511763.48846   2723264.23343  23659163.2894   23659154.0434
        38.5004         19.5004
 -14249432.09447 -10800446.78944  22503149.0314   22503137.0314
        43.0004         28.0004
 -12284145.10146  -9553245.05544  22699954.2034   22699946.3054
        40.0004         27.5004
 17  9 19  0  8 30.0000000  0 10G11G31G10G14G32G18G27G24G21G08
   -434203.01815                  25128541.094
        32.000
   -912867.711 6                  25124907.953
        38.250
 -20423590.36748 -14852066.70046  20817168.5004   20817158.7274
        50.5004         40.5004
 -13958029.43247  -9010771.78545  21323339.4144   21323328.1174
        45.7504         35.2504
 -25973936.81248 -19629104.87146  20617426.6254   20617416.9104
        51.0004         41.5004
 -13159415.31747  -9309057.74345  21970437.3594   21970424.5394
        45.2504         31.5004
 -18085797.91147 -13734799.10545  21850532.3524   21850522.1094
        47.2504         34.5004
   3546147.39446   2750056.93943  23665706.7344   23665696.7854
        39.5004         19.7504
 -14181014.20447 -10747134.18144  22516168.0234   22516156.0234
        42.7504         27.5004
 -12300572.17646  -9566045.37744  22696829.0314   22696820.2544
        40.2504         26.7504
 17  9 19  0  9  0.0000000  0 10G11G31G10G14G32G18G27G24G21G08
   -544149.905 5                  25107620.867
        33.000
  -1014987.782 6                  25105474.914
        38.500
 -20410310.98848 -14841719.13546  20819695.0394   20819685.7344
        50.5004         40.5004
 -14019083.69947  -9058346.51545  21311721.6804   21311709.4454
        45.2504         34.2504
 -26007244.24648 -19655058.70346  20611088.3204   20611078.6054
        50.5004         41.7504
 -13118562.29647  -9277224.22045  21978211.6334   21978198.5204
        45.5004         30.7504
 -18036511.57447 -13696394.17945  21859911.4224   21859901.4734
        46.7504         34.5004
   3581066.89546   2777266.94043  23672351.5634   23672342.6684
        39.5004         20.2504
 -14112260.77847 -10693560.13744  22529252.0164   22529239.8984
        43.0004         28.7504
 -12316439.67946  -9578409.69044  22693809.8754   22693799.9264
        40.5004         27.5004
 17  9 19  0  9 30.0000000  0 10G11G31G10G14G32G18G27G24G21G08
   -653967.796 5                  25086723.672
        33.750
  -1117274.532 6                  25086010.008
        37.250
 -20396863.66048 -14831240.69646  20822254.5314   20822244.4064
        50.2504         41.0004
 -14079723.86247  -9105598.56845  21300181.9694   21300169.8524
        46.5004         34.5004
 -26040062.88148 -19680631.64746  20604843.0474   20604833.5664
        50.0004         41.7504
 -13077623.51947  -9245323.88845  21986001.7114   21985989.0664
        46.5004         31.0004
 -17986756.32447 -13657623.86545  21869379.4144   21869369.1724
        46.2504         34.0004
   3616515.68446   2804889.32043  23679097.5394   23679088.4694
        38.0004         20.2504
 -14043177.98747 -10639729.41744  22542398.2734   22542385.7464
        43.7504         27.2504
 -12331752.42546  -9590341.71244  22690896.1334   22690886.0084
        41.5004         26.7504
 17  9 19  0 10  0.0000000  0 10G11G31G10G14G32G18G27G24G21G08
   -763649.555 5                  25065852.523
        33.750
  -1219721.487 6                  25066514.953
        36.750
 -20383244.24248 -14820628.16446  20824846.0314   20824836.4924
        50.0004         40.5004
 -14139944.73647  -9152523.90745  21288722.9454   21288710.1844
        46.5004         34.0004
 -26072388.24748 -19705820.23746  20598692.1804   20598681.9384
        51.0004         41.7504
 -13036594.39247  -9213353.13145  21993809.4614   21993796.8164
        45.7504         32.2504
 -17936530.08747 -13618486.56145  21878936.6254   21878927.1454
        45.5004         34.0004
   3652497.74246   2832927.29743  23685944.4844   23685936.0004
        37.2504         20.0004
 -13973761.72847 -10585638.84244  22555606.6954   22555595.3984
        42.5004         28.0004
 -12346505.84046  -9601837.88844  22688088.3054   22688078.8834
        41.5004         29.0004
 17  9 19  0 10 30.0000000  0 10G11G31G10G14G32G18G27G24G21G08
   -873192.844 5                  25045005.695
        34.000
  -1322326.110 6                  25046989.398
        37.500
 -20369452.90948 -14809881.67146  20827470.4614   20827460.7464
        50.5004         40.2504
 -14199745.39747  -9199121.80445  21277342.7424   21277330.3914
        46.5004         34.2504
 -26104220.25448 -19730624.38446  20592634.7114   20592624.7624
        51.0004         41.0004
 -12995475.01847  -9181312.07445  22001634.5864   22001621.8244
        46.2504         32.2504
 -17885835.21747 -13578984.09145  21888583.4614   21888574.1564
        45.5004         33.5004
   3689012.21746   2861380.11243  23692891.6724   23692883.9494
        36.5004         20.0004
 -13904013.40447 -10531289.54044  22568879.3524   22568868.1134
        42.5004         27.7504
 -12360700.30346  -9612898.50744  22685386.7344   22685377.6644
        41.0004         27.2504
 17  9 19  0 11  0.0000000  0 10G11G31G10G14G32G18G27G24G21G08
   -982595.717 6                  25024188.961
        37.500
  -1425086.380 6                  25027435.320
        38.250
 -20355490.59848 -14799001.95446  20830127.7194   20830117.9454
        50.7504         40.7504
 -14259125.32647  -9245391.86045  21266042.8524   21266031.0274
        45.2504         34.0004
 -26135559.55748 -19755044.60047  20586670.6644   20586661.0664
        50.0004         42.0004
 -12954265.91247  -9149201.09845  22009475.9844   22009463.2814
        46.7504         31.2504
 -17834674.84347 -13539118.88545  21898319.0164   21898309.5944
        45.0004         33.5004
   3726057.21845   2890246.38842  23699941.3364   23699933.2034
        35.7504         17.7504
 -13833934.31847 -10476682.49544  22582215.5234   22582204.2274
        42.5004         28.5004
 -12374336.04147  -9623523.77344  22682792.4534   22682782.9734
        42.0004         28.0004
 17  9 19  0 11 30.0000000  0 10G11G31G10G14G32G18G27G24G21G08
  -1091855.887 6                  25003396.914
        38.000
  -1528000.269 6                  25007851.063
        38.000
 -20341357.64648 -14787989.26646  20832816.8134   20832806.7464
        50.2504         40.5004
 -14318084.04647  -9291333.69845  21254823.9064   21254811.1454
        46.7504         35.0004
 -26166406.26448 -19779080.98446  20580800.9844   20580791.1524
        51.5004         41.7504
 -12912966.93947  -9117020.08045  22017334.7894   22017322.2034
        46.2504         32.0004
 -17783051.49447 -13498892.91445  21908142.9924   21908133.1024
        45.5004         33.5004
   3763632.07945   2919525.47843  23707090.2274   23707083.4414
        33.0004         18.2504
 -13763525.23847 -10421818.33044  22595614.5004   22595602.1484
        42.5004         26.7504
 -12387413.56247  -9633714.05144  22680303.4064   22680294.2194
        42.2504         28.0004
 17  9 19  0 12  0.0000000  0 10G11G31G10G14G32G18G27G24G21G08
  -1200970.224 6                  24982633.555
        39.000
  -1631064.908 6                  24988239.227
        38.000
 -20327053.94848 -14776843.53246  20835538.3914   20835528.7934
        49.5004         40.5004
 -14376620.18247  -9336946.24845  21243684.1484   21243672.1484
        44.5004         34.7504
 -26196760.01548 -19802733.24447  20575025.1954   20575015.0124
        50.0004         42.0004
 -12871577.54447  -9084768.61845  22025211.4144   22025198.7114
        47.0004         32.0004
 -17730967.25247 -13458307.81245  21918053.9144   21918043.9654
        45.2504         32.7504
   3801735.49445   2949216.41642  23714341.5164   23714333.9694
        34.0004         17.7504
 -13692787.44447 -10366698.00044  22609075.4694   22609063.0594
        43.7504         27.2504
 -12399931.85546  -9643468.57544  22677921.4694   22677912.2234
        41.5004         28.7504
 17  9 19  0 12 30.0000000  0 10G11G31G10G14G32G18G27G24G21G08
  -1309937.636 6                  24961896.711
        38.750
  -1734278.991 6                  24968596.086
        36.750
 -20312580.87948 -14765565.81346  20838292.9384   20838283.1054
        50.0004         40.7504
 -14434733.62147  -9382229.42545  21232625.6804   21232613.6214
        45.5004         34.2504
 -26226622.00548 -19826002.31247  20569342.1334   20569332.3594
        50.2504         42.5004
 -12830099.09247  -9052447.75645  22033104.3594   22033091.3054
        46.0004         31.5004
 -17678425.75247 -13417366.38445  21928052.3204   21928042.6644
        45.5004         32.5004
   3840366.29445   2979318.30942  23721692.9694   23721685.4804
        31.7504         17.7504
 -13621722.43847 -10311322.69544  22622598.7584   22622586.2304
        43.7504         28.0004
 -12411892.80147  -9652788.78544  22675645.1564   22675636.6134
        42.5004         28.0004
 17  9 19  0 13  0.0000000  0 10G11G31G10G14G32G18G27G24G21G08
  -1418752.724 6                  24941189.500
        37.000
  -1837637.251 6                  24948928.469
        36.000
 -20297935.79548 -14754154.05546  20841079.5634   20841069.7894
        50.5004         40.5004
 -14492421.42347  -9427180.93945  21221648.4774   21221635.7154
        45.0004         34.7504
 -26255989.46048 -19848886.03547  20563754.1954   20563744.2464
        50.5004         42.0004
 -12788528.62947  -9020055.18645  22041014.6724   22041001.9694
        46.0004         31.7504
 -17625426.62647 -13376068.39145  21938137.6564   21938127.2974
        45.5004         31.7504
   3879525.60745   3009832.02442  23729144.4384   23729136.8914
        34.2504         17.2504
 -13550328.41847 -10255691.05644  22636184.9144   22636172.3284
        43.0004         26.0004
 -12423293.56447  -9661672.51644  22673476.1644   22673466.8014
        43.0004         27.0004
 17  9 19  0 13 30.0000000  0 10G11G31G10G14G32G18G27G24G21G08
  -1527415.577 5                  24920510.500
        35.750
  -1941139.527 6                  24929233.563
        37.000
 -20283121.58548 -14742610.52746  20843898.6564   20843888.8834
        50.0004         40.5004
 -14549684.97647  -9471801.87145  21210751.6804   21210739.4454
        45.2504         34.7504
 -26284865.08848 -19871386.51846  20558258.9534   20558249.0634
        49.7504         41.5004
 -12746868.21347  -8987592.54245  22048942.2584   22048930.0234
        45.5004         31.0004
 -17571974.98747 -13334417.78845  21948305.5944   21948298.3984
        45.0004         32.0004
   3919209.86345   3040754.84942  23736696.2814   23736688.5594
        34.0004         17.2504
 -13478608.86547 -10199805.73344  22649832.9774   22649819.5124
        42.0004         26.7504
 -12434136.69547  -9670121.71144  22671412.7194   22671402.9454
        43.0004         28.0004
 17  9 19  0 14  0.0000000  0 10G11G31G10G14G32G18G27G24G21G08
  -1635922.632 6                  24899862.742
        36.750
  -2044783.060 6                  24909509.680
        37.500
 -20268137.42048 -14730934.54846  20846750.0634   20846740.2304
        51.0004         40.5004
 -14606522.57947  -9516090.89845  21199936.1564   21199923.4534
        46.7504         35.5004
 -26313247.92248 -19893502.99546  20552857.7114   20552848.0554
        50.0004         41.7504
 -12705117.02247  -8955059.16245  22056887.5234   22056874.8794
        46.2504         31.0004
 -17518072.35347 -13292415.77045  21958567.5394   21958557.0634
        45.7504         32.7504
   3959419.09346   3072086.71643  23744348.0944   23744340.1374
        37.5004         19.7504
 -13406563.58747 -10143666.56044  22663542.7194   22663529.1374
        44.0004         26.5004
 -12444421.19247  -9678135.60744  22669456.0704   22669445.8874
        43.5004         28.7504
 17  9 19  0 14 30.0000000  0 10G11G31G10G14G32G18G27G24G21G08
  -1744270.771 6                  24879244.672
        37.500
  -2148564.807 6                  24889759.367
        36.500
 -20252983.12648 -14719126.00546  20849633.4844   20849623.8874
        50.5004         40.5004
 -14662933.23147  -9560047.23646  21189200.9924   21189188.7584
        46.2504         36.0004
 -26341137.71748 -19915235.29946  20547550.8444   20547540.9534
        50.0004         41.7504
 -12663274.56447  -8922454.66045  22064850.0784   22064837.1994
        45.7504         31.2504
 -17463720.90447 -13250064.02245  21968910.0314   21968899.3794
        44.5004         31.7504
   4000152.56946   3103827.08443  23752100.4384   23752091.1914
        38.2504         21.2504
 -13334193.48347 -10087274.28844  22677313.4614   22677300.5824
        43.5004         26.0004
 -12454147.12747  -9685714.26644  22667604.2424   22667595.5824
        43.0004         27.7504
 17  9 19  0 15  0.0000000  0 10G11G31G10G14G32G18G27G24G21G08
  -1852457.520 6                  24858658.883
        37.750
  -2252482.086 6                  24869984.633
        36.000
 -20237659.02248 -14707185.14046  20852549.7274   20852540.0124
        50.5004         40.2504
 -14718916.01847  -9603670.16945  21178548.0314   21178535.7974
        46.7504         35.7504
 -26368534.72348 -19936583.60047  20542336.9774   20542327.6724
        49.5004         42.0004
 -12621340.85747  -8889779.06245  22072829.3754   22072816.5554
        46.0004         31.5004
 -17408923.25647 -13207364.57345  21979336.9844   21979327.3284
        44.2504         31.5004
   4041409.24546   3135975.13643  23759950.5784   23759942.1524
        38.7504         22.5004
 -13261499.61846 -10030629.80344  22691146.8054   22691134.5704
        41.2504         26.2504
 -12463315.10447  -9692858.14944  22665859.9384   22665850.6334
        42.5004         27.0004
 17  9 19  0 15 30.0000000  0 10G11G31G10G14G32G18G27G24G21G08
  -1960481.085 6                  24838101.805
        36.500
  -2356533.120 5                  24850185.172
        35.250
 -20222165.83348 -14695112.52746  20855498.0314   20855488.6094
        49.2504         40.2504
 -14774470.82447  -9646959.60445  21167975.9144   21167963.7384
        45.7504         35.2504
 -26395439.63048 -19957548.45747  20537217.3984   20537207.6254
        50.2504         42.0004
 -12579316.05547  -8857032.46745  22080826.7814   22080813.5514
        45.7504         31.5004
 -17353682.53347 -13164319.88445  21989849.6174   21989839.9024
        44.7504         32.7504
   4083187.18346   3168529.38843  23767901.7814   23767893.0044
        40.0004         21.7504
 -13188483.30247  -9973733.99244  22705041.7584   22705029.0554
        42.0004         26.5004
 -12471925.36947  -9699567.47144  22664221.3834   22664212.0784
        42.0004         26.5004
 17  9 19  0 16  0.0000000  0 10G11G31G10G14G32G18G27G24G21G08
  -2068338.316 5                  24817577.703
        35.000
  -2460714.985 6                  24830359.219
        37.000
 -20206503.25548 -14682907.91746  20858478.6884   20858469.0904
        51.0004         40.2504
 -14829596.37847  -9689914.56045  21157485.8204   21157474.4654
        46.2504         35.2504
 -26421852.05848 -19978129.56247  20532191.2734   20532181.5594
        51.0004         42.2504
 -12537199.68247  -8824214.52045  22088841.3134   22088828.4924
        46.0004         30.5004
 -17298000.81447 -13120931.56745  22000445.3524   22000435.6374
        44.7504         32.7504
   4125485.93746   3201489.43243  23775951.2584   23775941.5434
        39.5004         22.0004
 -13115144.93746  -9916587.26244  22718996.9534   22718984.8954
        41.5004         26.5004
 -12479977.78747  -9705842.09544  22662689.0234   22662680.5984
        42.0004         29.0004
 17  9 19  0 16 30.0000000  0 10G11G31G10G14G32G18G27G24G21G08
  -2176026.39245  -1124633.50742  24797085.6484   24797072.4774
        35.5004         16.7504
  -2565024.860 6                  24810509.328
        36.500
 -20190671.21348 -14670571.26746  20861491.6254   20861481.7344
        49.5004         40.7504
 -14884291.68247  -9732534.24945  21147077.6724   21147065.3794
        46.7504         35.7504
 -26447771.96348 -19998326.87547  20527258.6174   20527249.4884
        51.2504         42.7504
 -12494991.09247  -8791324.72345  22096873.0314   22096860.0354
        45.0004         31.2504
 -17241880.39347 -13077201.38545  22011123.5314   22011114.6954
        44.0004         33.0004
   4168304.89046   3234854.85743  23784098.7274   23784090.0664
        38.2504         21.5004
 -13041485.76146  -9859190.54844  22733013.5784   22733002.0474
        41.2504         26.2504
 -12487472.49447  -9711682.13144  22661262.6254   22661253.9064
        42.5004         28.0004
 17  9 19  0 17  0.0000000  0 10G11G31G10G14G32G18G27G24G21G08
  -2283542.74146  -1208412.42642  24776624.4454   24776613.4414
        36.7504         16.7504
  -2669460.149 6                  24790636.383
        37.500
 -20174669.82348 -14658102.64946  20864536.4454   20864526.3794
        49.7504         40.2504
 -14938556.11347  -9774818.20145  21136750.9454   21136739.3554
        46.5004         35.0004
 -26473199.47948 -20018140.50347  20522419.7584   20522410.5124
        51.0004         42.7504
 -12452690.21147  -8758363.00244  22104922.8524   22104909.7974
        46.0004         29.7504
 -17185323.86947 -13033131.40045  22021887.1334   22021876.8914
        45.0004         32.5004
   4211642.41246   3268624.35543  23792345.3754   23792336.5984
        38.0004         22.2504
 -12967506.34947  -9801544.29044  22747091.9614   22747080.1954
        42.2504         27.5004
 -12494409.38347  -9717087.48944  22659943.1174   22659933.8714
        42.7504         26.2504
 17  9 19  0 17 30.0000000  0 10G11G31G10G14G32G18G27G24G21G08
  -2390884.08545  -1292055.00542  24756197.1564   24756187.4414
        35.5004         16.2504
  -2774017.700 6                  24770739.938
        36.500
 -20158498.77948 -14645501.84446  20867613.8834   20867603.7584
        51.0004         40.5004
 -14992388.40647  -9816765.42145  21126507.4924   21126495.1994
        46.0004         34.7504
 -26498134.33748 -20037570.24747  20517675.1024   20517665.2114
        51.5004         42.2504
 -12410296.57647  -8725329.00845  22112990.2034   22112977.2074
        46.5004         31.2504
 -17128333.34747 -12988723.23045  22032731.6094   22032722.8324
        44.0004         32.5004
   4255498.06346   3302797.60443  23800689.7974   23800682.0744
        36.5004         22.5004
 -12893207.37747  -9743649.03944  22761230.3134   22761218.8404
        42.0004         26.0004
 -12500788.85647  -9722058.50944  22658728.2894   22658719.9224
        42.5004         27.0004
 17  9 19  0 18  0.0000000  0 10G11G31G10G14G32G18G27G24G21G08
  -2498048.430 5                  24735805.508
        34.500
  -2878695.280 5                  24750819.281
        34.250
 -20142158.66348 -14632769.28346  20870723.0164   20870713.1254
        50.2504         40.7504
 -15045788.53247  -9858375.88945  21116345.8134   21116333.6954
        45.7504         34.7504
 -26522577.20048 -20056616.62147  20513023.8914   20513014.1174
        51.2504         43.2504
 -12367810.11947  -8692222.69345  22121074.5554   22121061.9694
        46.0004         31.0004
 -17070911.86947 -12943979.25045  22043658.9144   22043649.2584
        44.0004         31.7504
   4299870.21146   3337373.29343  23809134.3364   23809125.2664
        38.5004         22.0004
 -12818590.56246  -9685506.10244  22775429.6024   22775417.7194
        41.2504         26.0004
 -12506611.25147  -9726595.44544  22657621.5394   22657612.4104
        42.5004         26.5004
 17  9 19  0 18 30.0000000  0 10G11G31G10G14G32G18G27G24G21G08
  -2605032.274 5                  24715447.281
        31.250
  -2983490.016 5                  24730879.391
        33.750
 -20125648.98348 -14619904.59646  20873865.2814   20873854.8054
        51.0004         40.7504
 -15098754.40947  -9899647.97745  21106266.4384   21106254.4964
        46.5004         35.0004
 -26546527.71248 -20075279.34147  20508466.4774   20508456.3524
        52.5004         43.2504
 -12325230.14947  -8659043.49745  22129178.1804   22129164.5984
        46.0004         30.7504
 -17013061.45147 -12898901.03345  22054667.7344   22054657.9614
        43.5004         32.0004
   4344757.87646   3372350.68343  23817675.6564   23817667.4064
        38.0004         20.5004
 -12743656.06646  -9627115.63344  22789689.3364   22789677.6294
        41.5004         26.5004
 -12511876.43746  -9730698.20044  22656618.9614   22656610.0084
        41.5004         26.2504
 17  9 19  0 19  0.0000000  0 10G11G31G10G14G32G18G27G24G21G08
  -1136414.799 5                  24695123.953
        34.000
  -3088400.965 5                  24710915.688
        34.750
 -20108971.42248 -14606909.09846  20877038.5554   20877028.4884
        50.5004         40.5004
 -15151287.79147  -9940583.06545  21096270.1254   21096257.5984
        46.0004         35.2504
 -26569987.61648 -20093559.77647  20504001.8134   20503992.0984
        52.0004         43.0004
 -12282558.12647  -8625792.59245  22137298.6804   22137285.2734
        47.0004         31.2504
 -16954786.29947 -12853491.85245  22065756.4774   22065747.7584
        44.5004         32.0004
   4390158.65146   3407727.88943  23826315.2734   23826307.2584
        38.2504         21.5004
 -12668406.43046  -9568479.59044  22804009.0394   22803997.9774
        41.5004         27.5004
 -12516585.94046  -9734367.96644  22655722.6804   22655713.9614
        40.2504         26.7504
 17  9 19  0 19 30.0000000  0 10G11G31G10G14G32G18G27G24G21G08
  -1243031.928 5                  24674837.586
        35.500
  -3193424.065 5                  24690929.078
        34.250
 -20092124.90648 -14593781.94746  20880244.2734   20880234.6764
        50.2504         41.0004
 -15203386.54247  -9981179.46945  21086356.3594   21086343.7734
        47.0004         35.2504
 -26592956.03348 -20111457.23047  20499631.2034   20499621.3714
        52.7504         43.0004
 -12239792.66347  -8592468.87845  22145436.4144   22145423.5354
        46.7504         31.5004
 -16896087.84547 -12807752.81945  22076926.9384   22076917.5164
        45.0004         32.0004
   4436072.34246   3443504.78743  23835052.4694   23835044.2194
        39.2504         21.2504
 -12592841.76146  -9509598.08644  22818388.4844   22818376.7774
        41.5004         24.7504
 -12520739.50247  -9737604.52044  22654933.0004   22654923.6954
        42.0004         26.2504
 17  9 19  0 20  0.0000000  0 10G11G31G10G14G32G18G27G24G21G08
  -1349461.20645   -365732.67442  24654582.8054   24654571.6844
        33.7504         15.5004
  -3298556.460 5                  24670921.320
        31.250
 -20075109.39148 -14580523.09946  20883482.6804   20883472.6134
        50.5004         41.0004
 -15255049.92647 -10021436.63545  21076524.9844   21076511.8714
        46.5004         35.5004
 -26615433.05248 -20128971.78747  20495354.0164   20495344.0664
        52.5004         43.2504
 -12196933.27347  -8559071.95945  22153591.7424   22153579.2734
        46.2504         30.2504
 -16836968.62147 -12761685.91345  22088176.5554   22088166.6644
        45.0004         32.2504
   4482497.99046   3479680.61843  23843887.0234   23843878.5984
        39.7504         21.7504
 -12516962.68247  -9450471.58744  22832827.7504   22832815.5164
        42.0004         25.2504
 -12524337.38046  -9740408.06444  22654248.0004   22654238.8714
        41.2504         26.5004
 17  9 19  0 20 30.0000000  0 10G11G31G10G14G32G18G27G24G21G08
  -1455699.44245   -448515.66542  24634366.2194   24634355.5084
        32.5004         14.7504
  -3403795.315 5                  24650894.000
        30.500
 -20057924.68948 -14567132.42546  20886753.0084   20886742.8244
        51.0004         40.7504
 -15306276.83447 -10061353.69046  21066777.2504   21066764.6054
        46.5004         36.5004
 -26637418.66548 -20146103.41547  20491170.5704   20491160.2704
        52.0004         43.0004
 -12153979.41147  -8525601.42545  22161765.7114   22161752.6564
        45.5004         30.2504
 -16777430.92947 -12715292.90945  22099506.5634   22099496.4964
        45.2504         32.2504
   4529434.53646   3516254.53043  23852819.2034   23852810.5434
        41.0004         22.2504
 -12440769.90947  -9391100.60244  22847327.1094   22847314.6414
        43.0004         25.7504
 -12527379.68947  -9742778.71444  22653668.6174   22653660.0744
        42.0004         27.0004
 17  9 19  0 21  0.0000000  0 10G11G31G10G14G32G18G27G24G21G08
  -1561744.35045   -531148.16442  24614188.1644   24614176.6914
        33.0004         13.7504
  -3509138.384 5                  24630849.719
        32.000
 -20040571.10548 -14553610.14546  20890054.9384   20890044.5784
        50.7504         41.0004
 -15357066.91347 -10100930.35046  21057111.8674   21057099.4574
        47.0004         36.0004
 -26658913.46048 -20162852.60547  20487080.2734   20487069.9734
        52.5004         43.5004
 -12110931.12747  -8492057.30944  22169958.1024   22169945.0474
        45.5004         29.7504
 -16717477.76447 -12668576.16745  22110915.1954   22110904.8954
        45.2504         32.7504
   4576880.05546   3553225.06443  23861847.4454   23861839.6054
        40.0004         22.0004
 -12364265.02647  -9331486.44444  22861885.5314   22861873.4144
        42.5004         26.0004
 -12529866.57046  -9744716.54344  22653194.9384   22653186.8054
        41.5004         25.7504
 17  9 19  0 21 30.0000000  0 10G11G31G10G14G32G18G27G24G21G08
  -1667594.890 5                  24594046.922
        34.750
  -3614584.446 5                  24610784.570
        32.000
 -20023050.64948 -14539957.85446  20893389.0234   20893378.8984
        50.5004         41.0004
 -15407421.35747 -10140167.55646  21047529.5084   21047517.5084
        47.0004         36.0004
 -26679919.59348 -20179221.01047  20483082.3914   20483072.5004
        51.7504         43.2504
 -12067790.07447  -8458440.92045  22178167.0394   22178153.6914
        46.0004         30.2504
 -16657113.62047 -12621539.20745  22122402.4144   22122392.0554
        45.0004         32.2504
   4624831.70246   3590589.97243  23870973.7664   23870964.4614
        40.0004         22.7504
 -12287450.74046  -9271631.22444  22876501.7734   22876490.8874
        40.5004         25.2504
 -12531800.81747  -9746223.76344  22652827.3444   22652818.5664
        42.0004         25.5004
 17  9 19  0 22  0.0000000  0 10G11G31G10G14G32G18G27G24G21G08
  -1773246.25045   -657013.67442  24573941.1254   24573926.7814
        35.2504         17.2504
  -3720129.083 5                  24590700.727
        33.000
 -20005361.09148 -14526173.78646  20896755.2274   20896745.0434
        50.5004         40.2504
 -15457337.49247 -10179063.23146  21038031.2034   21038018.8524
        47.0004         36.2504
 -26700435.17948 -20195207.17647  20479178.5084   20479168.7934
        52.0004         43.0004
 -12024553.53247  -8424750.12644  22186395.3524   22186381.3594
        45.5004         29.7504
 -16596338.97647 -12574182.35245  22133966.9844   22133957.3874
        44.7504         31.7504
   4673290.24846   3628349.88943  23880195.5234   23880185.3984
        39.5004         22.0004
 -12210326.38347  -9211534.40344  22891179.0004   22891166.7074
        42.7504         25.2504
 -12533180.55146  -9747298.88044  22652565.0474   22652555.7424
        41.7504         26.0004
 17  9 19  0 22 30.0000000  0 10G11G31G10G14G32G18G27G24G21G08
  -1878696.450 5                  24553870.953
        30.500
  -3825770.295 5                  24570597.102
        33.250
 -19987503.23648 -14512258.57446  20900153.1644   20900143.2154
        50.5004         40.0004
 -15506815.75147 -10217617.69245  21028615.2114   21028602.9184
        46.0004         35.7504
 -26720461.24448 -20210811.88547  20475367.3754   20475357.7194
        52.5004         43.5004
 -11981222.12747  -8390985.41144  22194640.0944   22194627.0984
        43.7504         29.2504
 -16535157.25847 -12526508.30945  22145609.7814   22145600.0664
        44.5004         32.2504
   4722253.81446   3666503.31843  23889512.5784   23889503.2734
        37.7504         20.7504
 -12132893.59247  -9151197.19244  22905914.3284   22905901.7424
        43.2504         25.7504
 -12534007.30046  -9747943.11144  22652408.2034   22652398.3714
        41.7504         27.0004
 17  9 19  0 23  0.0000000  0 10G11G31G10G14G32G18G27G24G21G08
  -1983941.96715                  24533845.273
        31.000
  -3931504.054 5                  24550476.766
        32.750
 -19969476.24648 -14498211.58146  20903583.5704   20903573.5634
        50.5004         40.2504
 -15555854.33147 -10255829.55046  21019283.6334   21019271.2234
        47.0004         36.0004
 -26739997.33348 -20226034.80447  20471650.2194   20471640.0944
        52.0004         43.2504
 -11937794.65647  -8357145.82144  22202904.2734   22202891.4534
        44.0004         29.5004
 -16473570.22247 -12478518.43445  22157329.5784   22157320.2154
        45.2504         32.5004
   4771721.89346   3705049.86843  23898926.3444   23898916.8634
        37.7504         20.2504
 -12055152.53147  -9090619.77744  22920707.6024   22920694.8984
        42.2504         24.7504
 -12534280.47846  -9748155.98944  22652356.2974   22652346.5234
        41.5004         26.5004
 17  9 19  0 23 30.0000000  0 10G11G31G10G14G32G18G27G24G21G08
  -2088980.837 5                  24513856.727
        32.750
  -4037328.786 5                  24530337.438
        31.500
 -19951280.89848 -14484033.39546  20907045.7894   20907035.9574
        51.0004         40.0004
 -15604453.55647 -10293699.05146  21010035.3754   21010022.9064
        47.5004         36.2504
 -26759044.53648 -20240876.77247  20468025.3054   20468015.4734
        51.7504         43.0004
 -11894271.76347  -8323231.88244  22211186.8914   22211173.0744
        44.5004         28.5004
 -16411581.46247 -12430215.53045  22169125.9384   22169116.1054
        44.5004         32.0004
   4821692.01746   3743987.61643  23908434.8054   23908425.4414
        37.5004         19.7504
 -11977104.95347  -9029803.53244  22935559.1094   22935547.5204
        42.5004         26.2504
 -12534001.00047  -9747938.22444  22652408.3834   22652400.1334
        42.0004         27.0004
 17  9 19  0 24  0.0000000  0 10G11G31G10G14G32G18G27G24G21G08
  -2193808.962 5                  24493906.273
        30.000
  -4143240.435 5                  24510183.414
        32.750
 -19932916.12948 -14469723.18246  20910539.7274   20910530.5394
        50.2504         39.5004
 -15652611.55047 -10331224.74146  21000871.5474   21000859.0204
        47.7504         36.7504
 -26777602.08848 -20255337.19147  20464493.9614   20464484.4224
        52.2504         43.0004
 -11850652.04347  -8289242.50044  22219487.1564   22219473.6334
        44.5004         29.0004
 -16349192.46347 -12381600.76445  22180997.6024   22180988.4144
        44.0004         31.7504
   4872164.47545   3783316.77243  23918038.0704   23918029.8204
        35.7504         20.5004
 -11898750.95247  -8968748.52744  22950469.2584   22950458.3714
        43.7504         27.2504
 -12533168.81247  -9747289.77844  22652567.3914   22652558.3204
        43.5004         26.2504
 17  9 19  0 24 30.0000000  0 10G11G31G10G14G32G18G27G24G21G08
  -2298427.931 4                  24473997.289
        28.500
  -4249240.089 5                  24490014.852
        33.750
 -19914385.59048 -14455283.81446  20914066.8674   20914057.0354
        50.5004         39.5004
 -15700331.50648 -10368409.10446  20991790.0394   20991778.0394
        48.0004         36.5004
 -26795674.09748 -20269419.26547  20461055.3674   20461045.1844
        52.0004         43.0004
 -11806938.68247  -8255180.15144  22227805.2734   22227792.1604
        44.0004         29.2504
 -16286409.68547 -12332679.14345  22192945.0234   22192935.2504
        44.0004         32.0004
   4923133.51545   3823032.92243  23927738.6334   23927729.2704
        34.7504         19.7504
 -11820095.41347  -8907458.54044  22965437.4534   22965425.5704
        42.0004         24.5004
 -12531788.00247  -9746213.83144  22652829.8984   22652820.6524
        42.7504         26.7504
 17  9 19  0 25  0.0000000  0 10G11G31G10G14G32G18G27G24G21G08
  -2402828.030 5                  24454133.789
        31.750
                                  24469826.742
        32.250
 -19895682.87548 -14440710.26946  20917625.6334   20917615.9774
        50.5004         40.2504
 -15747606.64547 -10405246.85346  20982794.2814   20982781.6954
        47.7504         36.7504
 -26813254.51148 -20283118.28647  20457709.3524   20457699.7544
        52.7504         43.5004
 -11763125.07247  -8221039.68744  22236143.4614   22236129.9384
        44.7504         29.0004
 -16223229.38847 -12283447.75245  22204967.7344   22204958.1954
        44.5004         31.7504
   4974604.77945   3863140.38243  23937532.8364   23937524.0594
        35.5004         18.5004
 -11741132.81646  -8845929.27943  22980463.1024   22980450.6334
        41.2504         22.5004
 -12529852.83647  -9744705.92244  22653198.3054   22653189.1764
        43.2504         27.0004
 17  9 19  0 25 30.0000000  0 10G11G31G10G14G32G18G27G24G21G08
  -2507011.363 5                  24434307.945
        31.750
  -1310637.79215                  24449625.695
        32.750
 -19876812.93148 -14426006.42346  20921217.0944   20921206.9104
        50.7504         40.5004
 -15794441.44048 -10441741.47846  20973881.9304   20973869.6954
        48.5004         36.7504
 -26830348.71948 -20296438.43947  20454456.3444   20454447.2154
        52.0004         43.0004
 -11719215.80347  -8186824.67644  22244499.0004   22244485.3014
        44.5004         28.5004
 -16159659.26347 -12233912.62145  22217064.6484   22217054.8754
        44.2504         31.5004
   5026571.62445   3903634.02343  23947420.5004   23947412.7194
        34.7504         19.0004
 -11661869.31247  -8784165.54344  22995547.0704   22995534.7774
        42.2504         26.0004
 -12527368.90347  -9742770.37844  22653670.8674   22653661.5044
        42.7504         27.2504
 17  9 19  0 26  0.0000000  0 10G11G31G10G14G32G18G27G24G21G08
  -2610975.414 4                  24414524.117
        29.500
  -1416875.07615                  24429409.664
        35.500
 -19857775.35248 -14411171.94846  20924839.2974   20924829.8754
        50.7504         40.2504
 -15840834.75648 -10477892.10046  20965053.3444   20965040.9344
        48.0004         36.2504
 -26846956.77548 -20309379.77547  20451296.0784   20451286.7154
        52.2504         43.2504
 -11675210.14247  -8152534.56044  22252872.3444   22252859.5234
        45.0004         28.7504
 -16095701.72247 -12184075.59945  22229235.1484   22229225.7854
        43.5004         30.7504
   5079032.51646   3944512.61343  23957405.5084   23957396.0274
        36.5004         19.7504
 -11582305.83847  -8722168.05144  23010688.2114   23010675.6844
        44.7504         25.5004
 -12524336.59346  -9740407.53344  22654247.8834   22654238.8134
        41.5004         26.0004
 17  9 19  0 26 30.0000000  0 10G11G31G10G14G32G18G27G24G21G08
  -2714716.946 5                  24394780.867
        30.250
                                  24409179.484
        36.000
 -19838569.86548 -14396206.63746  20928494.1174   20928484.0514
        51.2504         40.2504
 -15886785.83947 -10513698.12446  20956309.1024   20956297.1024
        47.7504         36.2504
 -26863078.85248 -20321942.41947  20448228.4384   20448218.3714
        52.2504         42.7504
 -11631107.44347  -8118168.85144  22261265.4614   22261252.0554
        45.2504         27.5004
 -16031359.22047 -12133938.62345  22241479.7194   22241469.5354
        44.0004         31.0004
   5131986.42246   3985775.40843  23967483.7344   23967472.0864
        38.0004         19.7504
 -11502443.54846  -8659937.75344  23025884.2584   23025873.4884
        41.5004         25.2504
 -12520755.72547  -9737617.26244  22654929.6484   22654920.2274
        43.5004         27.7504
 17  9 19  0 27  0.0000000  0 10G11G31G10G14G32G18G27G24G21G08
  -2818230.718 4                  24375082.258
        29.500
  -1629568.54346    268211.81853  24388936.1334   24388926.0664
        37.7504         20.0004
 -19819194.46948 -14381108.92546  20932181.3984   20932171.3324
        51.0004         40.5004
 -15932292.46948 -10549157.81746  20947649.6724   20947637.2624
        48.0004         36.5004
 -26878713.46848 -20334125.22447  20445252.9614   20445243.4224
        51.7504         43.2504
 -11586905.42247  -8083725.72144  22269676.0394   22269662.9264
        44.5004         27.7504
 -15966632.55647 -12083502.28945  22253796.0634   22253786.8754
        44.0004         30.2504
   5185434.23846   4027423.02643  23977654.7034   23977644.2854
        37.7504         20.0004
 -11422281.55346  -8597473.94543  23041138.8054   23041127.0984
        40.5004         23.2504
 -12516625.61147  -9734399.00244  22655715.9304   22655705.9224
        43.0004         27.0004
 17  9 19  0 27 30.0000000  0 10G11G31G10G14G32G18G27G24G21G08
  -2921516.692 5                  24355429.469
        31.750
  -1736019.73545    185262.86042  24368677.5394   24368669.3484
        34.5004         16.7504
 -19799651.65848 -14365880.75146  20935900.0394   20935889.9734
        50.0004         40.5004
 -15977356.79747 -10584272.85546  20939074.2974   20939062.0634
        47.7504         37.0004
 -26893863.62248 -20345930.53147  20442369.7424   20442360.1454
        52.0004         43.0004
 -11542606.26047  -8049206.89844  22278106.0784   22278092.6724
        44.5004         27.2504
 -15901527.05847 -12032770.77045  22266185.7974   22266175.9654
        43.7504         30.0004
   5239371.72046   4069452.25543  23987918.4224   23987908.4144
        37.5004         19.2504
 -11341823.26747  -8534779.20944  23056450.5704   23056437.5164
        43.2504         25.0004
 -12511949.25747  -9730755.08944  22656605.2664   22656595.8444
        43.7504         28.0004
 17  9 19  0 28  0.0000000  0 10G11G31G10G14G32G18G27G24G21G08
  -3024571.071 5                  24335817.945
        32.250
  -1842536.42245    102262.98842  24348407.7974   24348399.3714
        33.0004         15.5004
 -19779940.04148 -14350521.05746  20939650.9774   20939641.1454
        48.7504         40.2504
 -16021976.81147 -10619041.67346  20930582.9064   20930570.8484
        47.2504         36.7504
 -26908528.47348 -20357357.68847  20439579.7114   20439569.5274
        51.7504         42.5004
 -11498208.42547  -8014611.20144  22286554.5474   22286541.7274
        42.5004         28.2504
 -15836044.15247 -11981745.15245  22278646.3594   22278637.1134
        43.0004         31.5004
   5293798.67345   4111862.82943  23998274.7424   23998264.3834
        35.0004         19.0004
 -11261068.37846  -8471853.34844  23071817.8284   23071804.9494
        41.5004         25.2504
 -12506726.44847  -9726685.38044  22657599.5004   22657589.9024
        43.2504         25.7504
 17  9 19  0 28 30.0000000  0 10G11G31G10G14G32G18G27G24G21G08
  -3127390.132 5                  24316253.828
        35.000
  -1949115.01445     19214.87642  24328127.3284   24328117.9064
        34.5004         17.7504
 -19760058.63048 -14335029.05646  20943434.5474   20943424.4804
        50.0004         40.0004
 -16066151.17847 -10653463.24346  20922177.6174   20922165.1484
        47.2504         36.7504
 -26922707.59948 -20368406.34647  20436881.2344   20436871.4024
        51.5004         43.0004
 -11453710.69047  -7979937.66544  22295022.3834   22295009.3284
        43.0004         28.5004
 -15770185.68547 -11930426.90745  22291179.0004   22291169.8714
        43.7504         30.5004
   5348714.74046   4154654.57043  24008721.9384   24008714.0984
        36.0004         18.2504
 -11180017.70746  -8408697.05844  23087240.3834   23087229.1454
        40.0004         25.2504
 -12500956.48447  -9722189.32244  22658697.6804   22658687.6724
        42.5004         27.0004
 17  9 19  0 29  0.0000000  0 10G11G31G10G14G32G18G27G24G21G08
  -3229973.174 6                  24296733.516
        37.500
  -2055755.02245    -63881.04942  24307832.8834   24307825.5704
        33.7504         16.2504
 -19740010.01348 -14319406.74646  20947249.8134   20947239.6294
        48.5004         40.5004
 -16109882.14647 -10687539.30746  20913855.4694   20913843.2344
        47.5004         37.2504
 -26936404.14648 -20379078.96047  20434274.3284   20434265.1414
        50.0004         42.5004
 -11409115.01547  -7945187.78144  22303509.2114   22303496.0394
        43.7504         29.0004
 -15703957.09047 -11878820.24245  22303781.6414   22303772.5704
        44.5004         30.5004
   5404114.97345   4197823.60942  24019265.3834   24019256.2544
        35.2504         15.5004
 -11098675.17246  -8345313.35343  23102719.7664   23102708.3524
        41.0004         22.5004
 -12494643.07047  -9717269.79744  22659898.5704   22659889.5004
        43.0004         27.5004
 17  9 19  0 29 30.0000000  0 10G11G31G10G14G32G18G27G24G21G08
  -3332317.057 5                  24277259.102
        35.000
  -2162452.53145   -147021.89642  24287529.1884   24287521.4654
        34.5004         14.7504
 -19719793.27948 -14303653.45146  20951096.7034   20951086.6954
        49.2504         40.0004
 -16153168.55947 -10721268.96046  20905618.4384   20905605.9104
        47.0004         37.5004
 -26949617.84248 -20389375.33047  20431760.6804   20431750.6724
        51.5004         42.5004
 -11364420.30547  -7910360.76444  22312013.6024   22312000.6644
        42.5004         28.2504
 -15637360.35047 -11826926.71345  22316454.8204   22316445.6914
        43.7504         30.0004
   5459999.64346   4241370.07642  24029901.0474   24029891.0984
        36.5004         16.7504
 -11017040.88846  -8281702.24243  23118254.3594   23118242.3594
        41.2504         22.5004
 -12487786.06647  -9711926.67344  22661203.5164   22661194.3874
        43.5004         27.2504
 17  9 19  0 30  0.0000000  0 10G11G31G10G14G32G18G27G24G21G08
  -3434419.537 6                  24257827.984
        36.500
  -2269205.49146   -230205.82142  24267215.7814   24267206.5354
        36.7504         16.2504
 -19699408.78848 -14287769.43846  20954975.7584   20954965.8094
        48.7504         40.0004
 -16196010.57447 -10754652.33646  20897465.6414   20897453.2304
        47.5004         37.2504
 -26962349.66348 -20399296.22447  20429337.8284   20429327.7624
        51.0004         42.2504
 -11319626.23347  -7875456.29844  22320537.8204   22320524.5904
        43.7504         28.0004
 -15570398.70447 -11774748.83645  22329198.0084   22329187.9414
        44.0004         30.7504
   5516366.08345   4285291.94542  24040626.3914   24040617.6724
        34.7504         17.7504
 -10935116.10046  -8217864.74343  23133843.8984   23133831.4304
        40.5004         23.7504
 -12480386.70247  -9706160.95544  22662612.1484   22662602.0824
        44.2504         28.5004
 17  9 19  0 30 30.0000000  0 10G11G31G10G14G32G18G27G24G21G08
  -3536275.780 6                  24238445.164
        36.500
