     2.11           OBSERVATION DATA    G (GPS)             RINEX VERSION / TYPE
teqc  2017Sep15     UNAVCO Archive Ops  20170920 11:49:55UTCPGM / RUN BY / DATE
Solaris x86 5.10|AMD64|cc SC5.8 -xarch=amd64|=+|=+          COMMENT
BIT 2 OF LLI FLAGS DATA COLLECTED UNDER A/S CONDITION       COMMENT
TORP                                                        MARKER NAME
49912M001                                                   MARKER NUMBER
Ken Hudnut          U.S. Geological Survey                  OBSERVER / AGENCY
618-01074           TPS NET-G3A         4.7 Oct,18,2016 p2  REC # / TYPE / VERS
383-1827            TPSCR.G3        SCIS                    ANT # / TYPE
 -2517894.5535 -4670259.8838  3527827.6264                  APPROX POSITION XYZ
        0.1145        0.0000        0.0000                  ANTENNA: DELTA H/E/N
     1     1                                                WAVELENGTH FACT L1/2
     7    L1    L2    C1    P2    P1    S1    S2            # / TYPES OF OBSERV
    30.0000                                                 INTERVAL
    18                                                      LEAP SECONDS
input file: torp201709190000a.tps                           COMMENT
Forced Modulo Decimation to 30 seconds                      COMMENT
RINEX file created by UNAVCO GPS Archive.                   COMMENT
For more information contact archive-gps@unavco.org         COMMENT
Monument ID: 19537                                          COMMENT
UNAVCO 4-char name:   TORP                                  COMMENT
4-char name from Log or data file: TORP                     COMMENT
Monument location: 33.79779809 -118.33060363 -5.2156        COMMENT
Visit ID: 118238                                            COMMENT
doi:10.7283/T5251GF5                                        COMMENT
End of DB comments                                          COMMENT
 SNR is mapped to RINEX snr flag value [0-9]                COMMENT
  L1 & L2: min(max(int(snr_dBHz/6), 0), 9)                  COMMENT
pseudorange smoothing corrections not applied               COMMENT
rx serial #: 618-01074                                      COMMENT
  2017     9    19     0     0    0.0000000     GPS         TIME OF FIRST OBS
                                                            END OF HEADER
 17  9 19  0  0  0.0000000  0  8G32G10G18G27G21G24G14G08
 109016215.759 8  84947707.21847  20745079.298    20745080.110    20745079.072
        53.000          46.0004
 109237471.926 8  85120131.09747  20787189.068    20787189.688    20787188.706
        52.000          44.0004
 114848747.276 8  89492544.78446  21854980.104    21854977.721    21854979.336
        49.000          36.0004
 114061591.420 7  88879171.73046  21705195.186    21705195.957    21705194.636
        47.000          39.0004
 117287527.895 7  91392881.62645  22319069.674    22319068.262    22319068.675
        47.000          34.0004
 123940835.487 6  96577283.37144  23585150.060    23585152.013    23585149.663
        41.000          27.0004
 113179446.820 7  88191785.59146  21537320.752    21537319.309    21537319.699
        47.000          38.0004
 119617961.637 7  93208807.20545  22762538.389    22762540.061    22762537.869
        44.000          31.0004
 17  9 19  0  0 30.0000000  0  8G32G10G18G27G21G24G14G08
 108965296.368 8  84908029.79147  20735389.427    20735390.407    20735389.412
        53.000          46.0004
 109238732.292 6  85121113.18445  20787428.912    20787429.449    20787428.497
        40.000          35.0004
 114878982.652 7  89516104.81246  21860733.500    21860731.476    21860732.707
        47.000          36.0004
 114093217.725 8  88903815.58746  21711213.566    21711214.218    21711212.907
        48.000          39.0004
 117341231.225 7  91434728.34745  22329289.282    22329287.749    22329288.058
        46.000          34.0004
 123957162.757 6  96590005.92044  23588256.637    23588259.070    23588256.839
        41.000          27.0004
 113102145.610 7  88131550.91046  21522610.418    21522609.174    21522609.731
        47.000          37.0004
 119583285.465 7  93181786.81045  22755939.737    22755941.298    22755939.094
        44.000          31.0004
 17  9 19  0  1  0.0000000  0  8G32G10G18G27G21G24G14G08
 108914863.199 8  84868731.23347  20725792.502    20725793.304    20725792.311
        53.000          46.0004
 109240166.712 8  85122230.92247  20787701.860    20787702.492    20787701.474
        53.000          45.0004
 114909302.877 8  89539730.95846  21866503.544    21866501.236    21866502.545
        49.000          36.0004
 114125351.842 7  88928855.13946  21717328.388    21717329.251    21717327.857
        47.000          39.0004
 117395276.423 7  91476841.45945  22339573.715    22339572.249    22339572.589
        47.000          34.0004
 123974032.182 6  96603150.93144  23591467.280    23591469.251    23591466.927
        40.000          27.0004
 113025241.268 8  88071625.47646  21507976.179    21507974.901    21507975.372
        48.000          38.0004
 119549160.504 7  93155195.93345  22749445.794    22749447.621    22749445.585
        43.000          31.0004
 17  9 19  0  1 30.0000000  0  8G32G10G18G27G21G24G14G08
 108864919.096 8  84829813.76147  20716288.460    20716289.244    20716288.242
        51.000          46.0004
 109241777.301 8  85123485.92547  20788008.208    20788008.911    20788007.975
        51.000          45.0004
 114939711.053 8  89563425.63646  21872290.043    21872287.826    21872289.109
        48.000          36.0004
 114157994.198 8  88954290.72546  21723540.025    21723540.870    21723539.410
        48.000          39.0004
 117449665.563 7  91519222.57745  22349923.377    22349922.177    22349922.577
        47.000          34.0004
 123991444.816 6  96616719.22144  23594780.369    23594782.481    23594780.456
        41.000          27.0004
 112948737.565 8  88012012.22746  21493417.936    21493416.637    21493417.204
        48.000          38.0004
 119515589.487 7  93129036.70245  22743057.574    22743059.333    22743056.933
        44.000          31.0004
 17  9 19  0  2  0.0000000  0  8G32G10G18G27G21G24G14G08
 108815462.142 8  84791275.88947  20706876.836    20706877.857    20706876.896
        52.000          46.0004
 109243561.376 8  85124876.11447  20788347.693    20788348.438    20788347.426
        51.000          44.0004
 114970205.568 8  89587186.81046  21878092.801    21878090.396    21878091.880
        48.000          36.0004
 114191140.382 8  88980118.89946  21729847.669    21729848.366    21729846.972
        49.000          39.0004
 117504395.262 7  91561869.06745  22360338.412    22360336.852    22360337.319
        46.000          33.0004
 124009397.822 6  96630708.58644  23598196.815    23598198.620    23598196.695
        41.000          26.0004
 112872633.392 8  87952710.30146  21478935.980    21478934.511    21478935.049
        49.000          38.0004
 119482570.470 7  93103307.59845  22736774.232    22736776.015    22736773.706
        44.000          31.0004
 17  9 19  0  2 30.0000000  0  8G32G10G18G27G21G24G14G08
 108766495.377 8  84753119.98247  20697558.974    20697559.791    20697558.808
        53.000          46.0004
 109245521.334 8  85126403.35747  20788720.723    20788721.401    20788720.402
        53.000          45.0004
 115000787.337 7  89611016.75146  21883912.439    21883909.967    21883911.417
        47.000          36.0004
 114224790.995 7  89006340.13846  21736251.116    21736251.969    21736250.439
        46.000          39.0004
 117559467.720 7  91604782.63545  22370818.041    22370816.930    22370817.397
        47.000          33.0004
 124027893.680 6  96645120.95144  23601716.216    23601718.616    23601716.498
        41.000          26.0004
 112796932.725 8  87893722.79246  21464530.574    21464529.193    21464529.667
        49.000          38.0004
 119450106.524 7  93078011.01745  22730596.522    22730598.432    22730596.088
        44.000          31.0004
 17  9 19  0  3  0.0000000  0  8G32G10G18G27G21G24G14G08
 108718018.701 9  84715345.96147  20688334.048    20688334.945    20688333.986
        54.000          46.0004
 109247656.348 8  85128067.00247  20789126.962    20789127.683    20789126.682
        52.000          45.0004
 115031456.939 7  89634915.13646  21889748.382    21889746.313    21889747.771
        47.000          36.0004
 114258943.500 8  89032952.45946  21742750.101    21742750.745    21742749.497
        49.000          39.0004
 117614882.500 7  91647962.95545  22381363.482    22381361.755    22381362.401
        45.000          33.0004
 124046931.603 6  96659955.69744  23605339.162    23605341.316    23605339.027
        41.000          26.0004
 112721636.231 8  87835050.22746  21450202.009    21450200.528    21450201.286
        49.000          38.0004
 119418198.083 7  93053147.29745  22724524.643    22724526.179    22724524.078
        44.000          31.0004
 17  9 19  0  3 30.0000000  0  8G32G10G18G27G21G24G14G08
 108670028.912 8  84677951.33147  20679201.860    20679202.828    20679201.829
        53.000          46.0004
 109249962.607 8  85129864.08547  20789565.884    20789566.639    20789565.553
        53.000          45.0004
 115062210.693 8  89658879.09146  21895600.804    21895598.415    21895599.762
        48.000          36.0004
 114293592.212 8  89059951.43646  21749343.618    21749344.454    21749342.800
        49.000          39.0004
 117670634.531 7  91691406.06845  22391972.693    22391971.119    22391971.572
        46.000          33.0004
 124066507.270 6  96675209.46244  23609064.347    23609066.655    23609064.372
        40.000          26.0004
 112646741.432 8  87776690.66946  21435950.189    21435948.596    21435949.171
        48.000          38.0004
 119386841.602 7  93028713.67445  22718557.457    22718559.074    22718557.099
        43.000          31.0004
 17  9 19  0  4  0.0000000  0  8G32G10G18G27G21G24G14G08
 108622527.986 8  84640937.63847  20670162.730    20670163.628    20670162.588
        53.000          46.0004
 109252441.589 8  85131795.75747  20790037.546    20790038.253    20790037.370
        52.000          45.0004
 115093050.497 7  89682910.10446  21901469.232    21901467.100    21901468.507
        47.000          36.0004
 114328736.653 8  89087336.69646  21756031.152    21756032.278    21756030.690
        48.000          39.0004
 117726725.163 7  91735113.01845  22402646.556    22402644.730    22402645.402
        45.000          33.0004
 124086621.956 6  96690883.24344  23612891.862    23612894.361    23612892.021
        41.000          26.0004
 112572251.033 8  87718646.22846  21421775.086    21421773.583    21421774.212
        48.000          38.0004
 119356039.217 7  93004711.81345  22712696.205    22712697.880    22712695.708
        43.000          31.0004
 17  9 19  0  4 30.0000000  0  8G32G10G18G27G21G24G14G08
 108575519.745 8  84604307.85247  20661217.404    20661218.242    20661217.267
        52.000          47.0004
 109255096.236 8  85133864.31447  20790542.744    20790543.396    20790542.486
        51.000          45.0004
 115123979.866 7  89707010.90645  21907355.085    21907352.806    21907354.097
        47.000          35.0004
 114364378.216 7  89115109.32246  21762813.786    21762814.496    21762813.074
        47.000          39.0004
 117783157.134 7  91779085.95445  22413385.149    22413383.394    22413383.882
        45.000          33.0004
 124107278.243 6  96706979.04944  23616822.531    23616824.974    23616822.490
        40.000          26.0004
 112498169.820 8  87660920.63246  21407677.577    21407676.253    21407676.997
        48.000          38.0004
 119325794.849 7  92981144.77345  22706940.838    22706942.418    22706940.496
        43.000          31.0004
 17  9 19  0  5  0.0000000  0  8G32G10G18G27G21G24G14G08
 108528999.482 8  84568058.31147  20652364.860    20652365.750    20652364.717
        53.000          46.0004
 109257921.424 8  85136065.76147  20791080.414    20791081.093    20791079.989
        52.000          45.0004
 115154993.758 7  89731177.56445  21913256.860    21913254.540    21913255.955
        47.000          35.0004
 114400509.701 8  89143263.70746  21769689.133    21769690.086    21769688.674
        48.000          39.0004
 117839924.938 7  91823320.57245  22424187.692    22424186.004    22424186.452
        46.000          32.0004
 124128470.828 6  96723492.74644  23620855.386    23620857.956    23620855.435
        41.000          26.0004
 112424494.220 8  87603511.09646  21393657.494    21393656.230    21393656.942
        49.000          38.0004
 119296103.858 7  92958008.93545  22701290.546    22701292.413    22701290.379
        45.000          31.0004
 17  9 19  0  5 30.0000000  0  8G32G10G18G27G21G24G14G08
 108482972.172 8  84532192.88847  20643606.230    20643607.021    20643606.044
        53.000          46.0004
 109260921.578 8  85138403.54147  20791651.117    20791651.930    20791651.060
        52.000          45.0004
 115186097.250 8  89755414.04745  21919175.791    21919173.395    21919174.833
        49.000          35.0004
 114437133.677 8  89171801.85046  21776658.508    21776659.557    21776658.062
        49.000          38.0004
 117897032.684 7  91867820.08045  22435054.801    22435053.386    22435054.009
        46.000          32.0004
 124150204.030 6  96740427.70944  23624991.313    23624993.383    23624990.908
        41.000          26.0004
 112351229.749 8  87546421.92346  21379715.997    21379714.556    21379715.041
        50.000          38.0004
 119266971.184 7  92935308.14745  22695746.950    22695748.908    22695746.687
        45.000          31.0004
 17  9 19  0  6  0.0000000  0  8G32G10G18G27G21G24G14G08
 108437433.822 8  84496708.47147  20634940.644    20634941.331    20634940.370
        53.000          46.0004
 109264092.156 8  85140874.11947  20792254.623    20792255.296    20792254.366
        51.000          45.0004
 115217285.652 8  89779716.68845  21925110.643    21925108.388    21925109.749
        48.000          35.0004
 114474243.658 7  89200718.69946  21783720.486    21783721.360    21783719.882
        47.000          38.0004
 117954475.101 7  91912580.36845  22445985.756    22445984.152    22445984.680
        45.000          32.0004
 124172472.659 6  96757779.87744  23629228.726    23629231.010    23629228.694
        40.000          26.0004
 112278373.153 8  87489650.57046  21365851.550    21365850.256    21365850.831
        49.000          39.0004
 119238392.781 7  92913039.26145  22690308.964    22690310.562    22690308.243
        43.000          31.0004
 17  9 19  0  6 30.0000000  0  8G32G10G18G27G21G24G14G08
 108392384.147 8  84461604.84147  20626367.768    20626368.667    20626367.732
        52.000          46.0004
 109267432.423 8  85143476.92547  20792890.297    20792891.000    20792890.017
        51.000          45.0004
 115248558.883 7  89804085.43145  21931061.568    21931059.452    21931060.775
        47.000          35.0004
 114511836.922 7  89230012.13146  21790874.215    21790875.172    21790873.611
        46.000          38.0004
 118012251.206 7  91957600.67545  22456980.226    22456978.663    22456979.077
        46.000          32.0004
 124195275.680 7  96775548.47244  23633568.529    23633570.616    23633568.048
        42.000          26.0004
 112205925.035 8  87433197.51646  21352065.290    21352063.737    21352064.421
        48.000          39.0004
 119210368.364 7  92891202.04845  22684976.072    22684977.541    22684975.501
        42.000          31.0004
 17  9 19  0  7  0.0000000  0  8G32G10G18G27G21G24G14G08
 108347824.725 8  84426883.22647  20617888.370    20617889.228    20617888.333
        53.000          46.0004
 109270943.456 8  85146212.79147  20793558.370    20793559.126    20793558.209
        52.000          45.0004
 115279918.109 7  89828521.18445  21937029.121    21937026.864    21937028.282
        47.000          35.0004
 114549912.583 7  89259681.45246  21798119.873    21798120.565    21798119.155
        46.000          38.0004
 118070361.545 7  92002881.42645  22468038.081    22468036.855    22468037.393
        44.000          32.0004
 124218613.523 7  96793733.79644  23638009.086    23638011.109    23638008.912
        42.000          26.0004
 112133888.019 7  87377064.80446  21338357.173    21338355.644    21338356.295
        47.000          39.0004
 119182899.802 7  92869797.97345  22679748.643    22679750.546    22679748.127
        45.000          31.0004
 17  9 19  0  7 30.0000000  0  8G32G10G18G27G21G24G14G08
 108303753.892 8  84392542.33147  20609502.006    20609502.835    20609501.961
        53.000          47.0004
 109274623.137 8  85149080.07747  20794258.714    20794259.321    20794258.341
        52.000          44.0004
 115311362.022 7  89853022.92445  21943012.638    21943010.551    21943011.824
        47.000          35.0004
 114588466.530 8  89289723.47146  21805456.418    21805457.225    21805455.800
        48.000          38.0004
 118128803.844 7  92048420.84445  22479159.528    22479158.034    22479158.576
        46.000          32.0004
 124242483.828 7  96812334.03544  23642551.933    23642553.733    23642551.689
        42.000          27.0004
 112062261.041 7  87321251.59646  21324727.079    21324725.383    21324726.061
        46.000          39.0004
 119155985.383 7  92848825.69445  22674627.196    22674628.697    22674626.818
        43.000          31.0004
 17  9 19  0  8  0.0000000  0  8G32G10G18G27G21G24G14G08
 108260171.111 8  84358581.73547  20601208.438    20601209.296    20601208.380
        53.000          46.0004
 109278470.480 8  85152078.00547  20794990.729    20794991.456    20794990.494
        53.000          44.0004
 115342889.698 7  89877589.93445  21949012.395    21949010.077    21949011.300
        47.000          35.0004
 114627495.775 7  89320135.85046  21812883.256    21812884.385    21812882.770
        47.000          38.0004
 118187576.204 7  92094217.45345  22490343.763    22490342.183    22490342.490
        46.000          32.0004
 124266884.825 7  96831347.80144  23647194.898    23647197.125    23647194.973
        42.000          26.0004
 111991044.913 7  87265758.53746  21311174.958    21311173.509    21311174.038
        46.000          39.0004
 119129624.427 7  92828284.68745  22669611.191    22669612.660    22669610.370
        44.000          31.0004
 17  9 19  0  8 30.0000000  0  8G32G10G18G27G21G24G14G08
 108217081.674 8  84325005.56347  20593008.621    20593009.626    20593008.674
        53.000          46.0004
 109282490.406 8  85155210.41147  20795755.786    20795756.354    20795755.454
        51.000          45.0004
 115374506.324 8  89902226.26845  21955028.749    21955026.421    21955027.857
        48.000          35.0004
 114667003.134 7  89350920.79546  21820401.353    21820402.360    21820400.705
        45.000          38.0004
 118246682.963 7  92140274.61745  22501591.326    22501589.873    22501590.266
        44.000          32.0004
 124291821.041 7  96850778.60144  23651940.305    23651942.364    23651940.219
        43.000          28.0004
 111920245.347 8  87210590.07246  21297702.127    21297700.744    21297701.404
        48.000          38.0004
 119103822.413 7  92808179.22145  22664700.566    22664702.498    22664700.356
        44.000          31.0004
 17  9 19  0  9  0.0000000  0  8G32G10G18G27G21G24G14G08
 108174484.374 8  84291812.87147  20584902.737    20584903.633    20584902.642
        53.000          47.0004
 109286681.344 8  85158476.07547  20796553.326    20796553.984    20796552.888
        53.000          45.0004
 115406211.103 8  89926931.26945  21961062.099    21961059.665    21961061.194
        48.000          35.0004
 114706985.014 7  89382075.47946  21828009.666    21828010.700    21828009.197
        47.000          38.0004
 118306122.273 7  92186590.93645  22512902.168    22512900.753    22512901.192
        46.000          32.0004
 124317290.412 6  96870624.87044  23656787.102    23656788.823    23656787.026
        41.000          26.0004
 111849862.135 8  87155746.02846  21284308.563    21284307.313    21284307.863
        48.000          39.0004
 119078577.937 7  92788508.19045  22659897.057    22659898.941    22659896.686
        44.000          31.0004
 17  9 19  0  9 30.0000000  0  8G32G10G18G27G21G24G14G08
 108132379.432 9  84259003.83647  20576890.555    20576891.313    20576890.468
        54.000          46.0004
 109291043.132 8  85161874.86847  20797383.320    20797383.973    20797382.925
        53.000          45.0004
 115438003.974 7  89951704.92645  21967111.967    21967109.655    21967111.010
        47.000          35.0004
 114747439.130 7  89413598.14746  21835707.897    21835708.890    21835707.350
        47.000          38.0004
 118365893.227 7  92233165.67445  22524276.114    22524275.053    22524275.204
        45.000          32.0004
 124343291.828 7  96890885.71944  23661735.260    23661736.653    23661734.824
        42.000          27.0004
 111779896.356 8  87101227.26046  21270994.568    21270993.116    21270993.871
        48.000          39.0004
 119053891.376 7  92769271.90845  22655199.228    22655201.185    22655198.884
        44.000          32.0004
 17  9 19  0 10  0.0000000  0  8G32G10G18G27G21G24G14G08
 108090766.151 8  84226577.91747  20568971.710    20568972.509    20568971.556
        53.000          47.0004
 109295574.782 8  85165406.02447  20798245.561    20798246.280    20798245.363
        53.000          45.0004
 115469884.453 7  89976546.84545  21973178.378    21973176.335    21973177.707
        47.000          35.0004
 114788362.380 7  89445486.37846  21843495.421    21843496.507    21843494.763
        47.000          38.0004
 118425994.726 7  92279997.97645  22535713.242    22535711.981    22535712.203
        45.000          31.0004
 124369824.233 7  96911560.32244  23666783.756    23666785.962    23666783.727
        43.000          27.0004
 111710348.069 8  87047033.81246  21257760.020    21257758.456    21257759.162
        48.000          39.0004
 119029762.168 7  92750469.92045  22650607.454    22650609.457    22650607.226
        43.000          32.0004
 17  9 19  0 10 30.0000000  0  8G32G10G18G27G21G24G14G08
 108049642.899 8  84194533.84047  20561146.202    20561147.087    20561146.072
        53.000          47.0004
 109300274.346 8  85169068.02147  20799139.923    20799140.643    20799139.680
        53.000          45.0004
 115501850.667 7  90001455.57645  21979261.618    21979259.199    21979260.662
        46.000          35.0004
 114829750.655 8  89477736.96146  21851371.407    21851372.270    21851370.620
        48.000          38.0004
 118486423.598 7  92327085.37245  22547212.654    22547211.194    22547211.477
        44.000          31.0004
 124396884.950 7  96932646.59144  23671933.443    23671935.044    23671933.370
        42.000          28.0004
 111641216.472 8  86993165.05946  21244604.630    21244603.248    21244603.813
        49.000          39.0004
 119006188.232 7  92732100.61845  22646121.729    22646123.458    22646121.274
        44.000          32.0004
 17  9 19  0 11  0.0000000  0  9G11G32G10G18G27G21G24G14G08
 131292236.997 6 102305637.32141  24984081.512    24984076.057
        37.000          11.0004
 108009005.749 8  84162868.54347  20553413.349    20553414.049    20553413.099
        52.000          47.0004
 109305137.600 8  85172857.56847  20800065.193    20800066.100    20800065.049
        53.000          45.0004
 115533898.767 8  90026428.10845  21985360.099    21985357.964    21985359.226
        48.000          34.0004
 114871597.581 8  89510344.93846  21859334.306    21859335.572    21859334.025
        48.000          38.0004
 118547175.361 7  92374424.37145  22558773.225    22558771.869    22558772.038
        45.000          32.0004
 124424468.843 7  96954140.53544  23677182.274    23677184.228    23677182.330
        42.000          27.0004
 111572498.767 8  86939618.81846  21231528.184    21231526.667    21231527.260
        49.000          39.0004
 118983165.986 7  92714161.19545  22641741.055    22641742.583    22641740.426
        45.000          32.0004
 17  9 19  0 11 30.0000000  0  9G11G32G10G18G27G21G24G14G08
 131173627.807 6 102213214.52442  24961510.723    24961510.568    24961511.316
        36.000          12.0004
 107968858.607 9  84131585.07047  20545773.600    20545774.299    20545773.323
        54.000          47.0004
 109310168.225 8  85176777.53347  20801022.658    20801023.290    20801022.342
        52.000          45.0004
 115566032.962 7  90051467.73045  21991475.045    21991472.935    21991474.072
        47.000          35.0004
 114913904.660 8  89543311.47046  21867385.415    21867386.288    21867384.761
        48.000          38.0004
 118608253.189 7  92422017.44545  22570396.023    22570394.626    22570394.800
        46.000          31.0004
 124452579.181 7  96976044.70244  23682531.416    23682533.638    23682531.694
        42.000          28.0004
 111504199.487 8  86886398.62046  21218531.346    21218529.713    21218530.351
        49.000          39.0004
 118960698.993 7  92696654.44645  22637465.527    22637467.330    22637464.963
        43.000          32.0004
 17  9 19  0 12  0.0000000  0  9G11G32G10G18G27G21G24G14G08
 131055163.751 6 102120904.89242  24938968.955    24938967.689    24938968.380
        36.000          13.0004
 107929204.428 9  84100685.72547  20538227.402    20538228.359    20538227.478
        54.000          47.0004
 109315368.944 8  85180830.03947  20802012.239    20802013.089    20802011.947
        52.000          45.0004
 115598256.400 7  90076576.89445  21997607.082    21997604.816    21997606.210
        47.000          34.0004
 114956672.414 7  89576636.97446  21875523.750    21875524.795    21875523.186
        47.000          38.0004
 118669658.432 7  92469865.65045  22582080.937    22582079.830    22582079.912
        44.000          31.0004
 124481217.465 7  96998360.24044  23687981.297    23687983.471    23687981.085
        43.000          27.0004
 111436322.603 8  86833507.56346  21205614.467    21205613.214    21205613.902
        49.000          39.0004
 118938790.887 7  92679583.18245  22633296.345    22633298.131    22633296.051
        45.000          32.0004
 17  9 19  0 12 30.0000000  0  9G11G32G10G18G27G21G24G14G08
 130936845.828 5 102028709.15142  24916452.545    24916451.978    24916453.124
        35.000          13.0004
 107890042.052 8  84070169.59947  20530775.203    20530776.034    20530775.018
        53.000          47.0004
 109320738.370 8  85185014.00447  20803034.163    20803034.800    20803033.678
        53.000          45.0004
 115630567.732 7  90101754.54645  22003755.728    22003753.447    22003754.648
        46.000          34.0004
 114999897.216 8  89610318.61546  21883749.066    21883750.166    21883748.609
        48.000          38.0004
 118731389.659 7  92517967.87045  22593828.167    22593826.750    22593827.158
        45.000          31.0004
 124510382.420 7  97021086.17244  23693531.663    23693532.840    23693531.087
        42.000          28.0004
 111368868.262 8  86780945.75946  21192778.701    21192776.959    21192777.669
        49.000          39.0004
 118917439.783 7  92662945.95245  22629233.575    22629235.313    22629232.996
        44.000          32.0004
 17  9 19  0 13  0.0000000  0 10G11G32G10G31G18G27G21G24G14G08
 130818676.821 5 101936629.44541  24893966.590    24893965.482    24893965.565
        34.000          11.0004
 107851371.639 8  84040036.82147  20523416.333    20523417.257    20523416.317
        53.000          46.0004
 109326276.505 8  85189329.43447  20804087.894    20804088.642    20804087.614
        52.000          44.0004
 130914754.049 6 102011498.99843  24912248.069    24912250.044    24912247.770
        40.000          23.0004
 115662967.306 7  90127000.95545  22009920.871    22009918.948    22009920.106
        47.000          34.0004
 115043576.804 8  89644354.63446  21892061.144    21892062.013    21892060.635
        48.000          38.0004
 118793445.976 7  92566323.40345  22605637.197    22605635.888    22605636.123
        45.000          31.0004
 124540072.511 7  97044221.30344  23699180.855    23699182.829    23699180.990
        42.000          27.0004
 111301836.792 8  86728713.46946  21180023.003    21180021.238    21180022.069
        49.000          39.0004
 118896645.903 7  92646742.92145  22625276.645    22625278.261    22625276.005
        43.000          32.0004
 17  9 19  0 13 30.0000000  0 10G11G32G10G31G18G27G21G24G14G08
 130700661.293 5 101844669.34641  24871508.726    24871508.582    24871508.530
        31.000          11.0004
 107813195.031 8  84010288.82547  20516151.592    20516152.510    20516151.600
        53.000          47.0004
 109331985.055 8  85193777.65847  20805174.278    20805174.938    20805173.952
        52.000          44.0004
 130802002.917 6 101923641.20343  24890792.475    24890793.791    24890791.235
        36.000          22.0004
 115695457.550 7  90152318.01645  22016103.574    22016101.558    22016102.830
        46.000          34.0004
 115087710.613 7  89678744.59346  21900459.535    21900460.459    21900458.896
        46.000          38.0004
 118855828.523 7  92614933.14145  22617508.203    22617506.927    22617507.182
        46.000          31.0004
 124570288.841 7  97067766.49144  23704931.255    23704933.053    23704930.896
        42.000          27.0004
 111235231.362 8  86676813.15646  21167348.244    21167346.566    21167347.371
        49.000          39.0004
 118876411.301 7  92630975.69145  22621426.181    22621427.878    22621425.514
        44.000          32.0004
 17  9 19  0 14  0.0000000  0 10G11G32G10G31G18G27G21G24G14G08
 130582804.202 4                  24849080.540
        29.000
 107775514.615 8  83980927.47247  20508981.358    20508982.100    20508981.125
        53.000          47.0004
 109337866.233 8  85198360.39247  20806293.384    20806294.119    20806293.057
        52.000          45.0004
 130689112.565 5 101835675.03043  24869310.589    24869311.769    24869310.179
        30.000          19.0004
 115728040.749 7  90177707.51645  22022304.188    22022302.020    22022303.173
        47.000          34.0004
 115132298.591 8  89713488.44746  21908944.550    21908945.455    21908943.785
        48.000          38.0004
 118918538.910 7  92663798.33445  22629441.805    22629440.462    22629440.597
        45.000          31.0004
 124601032.859 7  97091722.86744  23710781.316    23710783.204    23710781.356
        42.000          27.0004
 111169055.077 8  86625247.24046  21154755.464    21154753.694    21154754.546
        48.000          40.0004
 118856738.308 7  92615646.08345  22617682.500    22617684.219    22617682.025
        45.000          32.0004
 17  9 19  0 14 30.0000000  0 10G11G32G10G31G18G27G21G24G14G08
 130465116.205 4                  24826683.872                    24826690.729
        25.000
 107738331.340 9  83951953.50047  20501905.468    20501906.337    20501905.471
        54.000          47.0004
 109343920.907 8  85203078.32047  20807445.589    20807446.250    20807445.151
        53.000          44.0004
 130576087.028 5 101747603.49542  24847800.030    24847803.926    24847801.339
        34.000          13.0004
 115760718.053 7  90203170.34145  22028522.281    22028520.214    22028521.621
        47.000          34.0004
 115177339.225 7  89748585.02546  21917515.382    21917516.364    21917514.717
        47.000          38.0004
 118981576.899 7  92712918.81345  22641437.300    22641436.035    22641436.210
        45.000          30.0004
 124632304.524 6  97116090.40344  23716732.446    23716734.099    23716732.224
        41.000          27.0004
 111103309.625 8  86574017.03846  21142244.247    21142242.710    21142243.542
        50.000          40.0004
 118837627.631 7  92600754.63845  22614045.909    22614047.544    22614045.350
        45.000          32.0004
 17  9 19  0 15  0.0000000  0  9G32G10G31G18G27G21G24G14G08
 107701643.788 8  83923365.80747  20494924.038    20494924.964    20494923.982
        52.000          47.0004
 109350147.584 8  85207930.28147  20808630.542    20808631.122    20808630.087
        52.000          45.0004
 130462927.852 6 101659427.72743  24826267.671    24826270.087    24826267.647
        37.000          18.0004
 115793488.317 7  90228705.59945  22034758.514    22034756.144    22034757.533
        47.000          34.0004
 115222828.721 8  89784031.36146  21926171.521    21926172.866    21926171.131
        48.000          38.0004
 119044940.241 7  92762292.80545  22653494.927    22653493.911    22653494.065
        46.000          30.0004
 124664101.542 7  97140867.29244  23722783.041    23722784.929    23722782.872
        42.000          27.0004
 111037994.816 8  86523122.40246  21129815.360    21129813.697    21129814.556
        48.000          39.0004
 118819077.483 7  92586299.96945  22610515.855    22610517.540    22610515.471
        45.000          32.0004
 17  9 19  0 15 30.0000000  0  9G32G10G31G18G27G21G24G14G08
 107665449.445 8  83895162.42847  20488036.422    20488037.337    20488036.405
        53.000          47.0004
 109356543.696 8  85212914.26747  20809847.641    20809848.238    20809847.310
        52.000          44.0004
 130349634.862 6 101571147.62243  24804708.865    24804710.186    24804708.297
        37.000          18.0004
 115826349.560 7  90254311.75045  22041011.808    22041009.400    22041010.800
        46.000          34.0004
 115268762.142 8  89819823.61346  21934912.525    21934913.589    21934912.067
        48.000          37.0004
 119108625.876 7  92811917.93545  22665613.944    22665612.856    22665612.976
        45.000          30.0004
 124696420.214 7  97166050.66844  23728933.158    23728935.038    23728932.955
        43.000          27.0004
 110973108.910 8  86472561.97946  21117467.914    21117466.349    21117466.988
        49.000          40.0004
 118801085.744 7  92572280.42445  22607092.191    22607093.859    22607091.712
        45.000          32.0004
 17  9 19  0 16  0.0000000  0  9G32G10G31G18G27G21G24G14G08
 107629749.499 9  83867344.29747  20481242.987    20481243.845    20481242.975
        55.000          47.0004
 109363110.366 8  85218031.15747  20811097.247    20811097.943    20811096.805
        52.000          44.0004
 130236211.711 5 101482766.09342  24783123.950    24783126.372    24783125.427
        35.000          16.0004
 115859303.033 7  90279989.77245  22047282.518    22047280.431    22047281.772
        46.000          34.0004
 115315138.276 8  89855960.83646  21943737.773    21943738.709    21943736.993
        48.000          38.0004
 119172634.193 7  92861794.50045  22677794.354    22677793.170    22677793.368
        44.000          30.0004
 124729260.990 6  97191640.87944  23735182.883    23735184.454    23735182.248
        40.000          26.0004
 110908653.997 8  86422337.39246  21105202.534    21105201.043    21105201.628
        49.000          40.0004
 118783653.468 7  92558696.82445  22603774.916    22603776.794    22603774.468
        45.000          32.0004
 17  9 19  0 16 30.0000000  0  9G32G10G31G18G27G21G24G14G08
 107594543.271 8  83839910.88047  20474543.491    20474544.400    20474543.374
        52.000          47.0004
 109369846.935 8  85223280.43147  20812379.182    20812379.796    20812378.862
        51.000          45.0004
 130122661.540 5 101394285.73541  24761515.167    24761518.610    24761516.168
        31.000          11.0004
 115892348.641 7  90305739.58645  22053570.823    22053568.715    22053569.925
        47.000          34.0004
 115361954.023 7  89892440.61546  21952646.172    21952647.572    21952645.752
        46.000          37.0004
 119236963.205 7  92911920.96045  22690035.832    22690034.713    22690034.786
        44.000          30.0004
 124762622.401 6  97217636.77844  23741531.692    23741532.494    23741530.926
        41.000          26.0004
 110844630.335 8  86372448.84146  21093019.289    21093017.677    21093018.405
        48.000          40.0004
 118766779.692 7  92545548.42145  22600563.848    22600565.765    22600563.433
        44.000          32.0004
 17  9 19  0 17  0.0000000  0  9G32G10G31G18G27G21G24G14G08
 107559831.990 9  83812863.13947  20467938.165    20467939.003    20467938.051
        54.000          47.0004
 109376754.623 8  85228663.04447  20813693.660    20813694.246    20813693.309
        53.000          44.0004
 130008986.321 5 101305707.94541  24739885.010    24739886.297    24739884.033
        35.000          10.0004
 115925487.836 8  90331562.32545  22059877.124    22059874.968    22059876.303
        48.000          34.0004
 115409208.180 8  89929262.00846  21961638.616    21961639.581    21961638.055
        48.000          37.0004
 119301613.759 7  92962297.97245  22702338.190    22702337.233    22702337.333
        44.000          30.0004
 124796504.292 7  97244038.25244  23747978.464    23747980.339    23747978.463
        43.000          26.0004
 110781039.943 8  86322897.90846  21080918.372    21080916.778    21080917.506
        50.000          40.0004
 118750465.984 7  92532836.43845  22597459.629    22597461.290    22597459.279
        45.000          32.0004
 17  9 19  0 17 30.0000000  0  9G32G10G31G18G27G21G24G14G08
 107525615.648 8  83786201.06947  20461426.993    20461427.816    20461426.902
        53.000          47.0004
 109383833.494 8  85234179.04547  20815040.640    20815041.257    20815040.291
        50.000          44.0004
 129895190.092 6 101217035.71842  24718230.537    24718231.309    24718229.994
        38.000          17.0004
 115958720.810 7  90357458.13945  22066201.348    22066198.891    22066200.192
        47.000          34.0004
 115456898.399 8  89966423.19446  21970713.630    21970715.060    21970713.145
        48.000          37.0004
 119366584.832 7  93012924.74245  22714702.169    22714700.975    22714700.956
        44.000          30.0004
 124830905.867 6  97270844.66944  23754524.975    23754526.977    23754524.601
        41.000          26.0004
 110717883.797 8  86273685.34646  21068900.033    21068898.630    21068899.285
        48.000          40.0004
 118734711.610 7  92520560.29445  22594461.639    22594463.351    22594461.135
        43.000          32.0004
 17  9 19  0 18  0.0000000  0  9G32G10G31G18G27G21G24G14G08
 107491889.379 8  83759920.87247  20455009.104    20455009.917    20455008.972
        53.000          47.0004
 109391078.690 8  85239824.65447  20816419.267    20816419.990    20816419.111
        51.000          45.0004
 129781270.678 6 101128267.51543  24696551.845    24696553.170    24696551.842
        41.000          19.0004
 115992043.392 7  90383423.77445  22072542.496    22072539.890    22072541.286
        46.000          34.0004
 115505017.328 7  90003918.43646  21979870.368    21979871.556    21979869.912
        47.000          37.0004
 119431870.518 7  93063796.66444  22727125.376    22727124.298    22727124.439
        43.000          29.0004
 124865821.235 6  97298051.45644  23761169.482    23761170.512    23761168.850
        41.000          25.0004
 110655157.699 8  86224807.88646  21056963.789    21056962.103    21056962.870
        48.000          40.0004
 118719512.010 7  92508716.44045  22591569.215    22591571.016    22591568.632
        44.000          32.0004
 17  9 19  0 18 30.0000000  0 10G11G32G10G31G18G27G21G24G14G08
 129529605.502 6 100932159.39442  24648664.356    24648662.621    24648664.115
        37.000          13.0004
 107458656.580 9  83734025.19947  20448685.181    20448685.937    20448685.047
        54.000          47.0004
 109398493.756 8  85245602.62647  20817830.451    20817831.063    20817830.047
        53.000          44.0004
 129667234.150 6 101039408.01843  24674850.981    24674852.955    24674851.338
        40.000          23.0004
 116025459.321 8  90409462.14945  22078901.352    22078898.912    22078900.283
        48.000          34.0004
 115553566.079 7  90041748.60746  21989109.107    21989110.252    21989108.430
        46.000          37.0004
 119497473.725 7  93114916.00544  22739609.261    22739608.467    22739608.351
        44.000          29.0004
 124901252.610 7  97325660.32444  23767911.688    23767913.356    23767911.192
        44.000          26.0004
 110592866.826 8  86176269.56246  21045110.103    21045108.580    21045109.260
        49.000          40.0004
 118704870.393 7  92497307.38245  22588783.048    22588784.746    22588782.629
        44.000          32.0004
 17  9 19  0 19  0.0000000  0 10G11G32G10G31G18G27G21G24G14G08
 129413461.763 6 100841657.74042  24626563.314    24626562.303    24626562.914
        38.000          13.0004
 107425916.010 8  83708513.08147  20442454.761    20442455.584    20442454.718
        53.000          47.0004
 109406077.546 8  85251512.07247  20819273.607    20819274.247    20819273.176
        52.000          44.0004
 129553081.813 7 100950458.25943  24653128.359    24653129.493    24653128.653
        42.000          21.0004
 116058967.616 7  90435572.49945  22085277.601    22085275.331    22085276.551
        46.000          34.0004
 115602540.921 7  90079910.79846  21998428.662    21998429.812    21998428.072
        47.000          37.0004
 119563392.424 7  93166281.18244  22752153.794    22752152.154    22752152.197
        45.000          29.0004
 124937197.983 7  97353669.69044  23774751.805    23774753.515    23774751.109
        42.000          25.0004
 110531009.849 8  86128069.33846  21033339.157    21033337.466    21033338.256
        48.000          41.0004
 118690785.684 7  92486332.27945  22586102.762    22586104.485    22586102.223
        43.000          32.0004
 17  9 19  0 19 30.0000000  0 10G11G32G10G31G18G27G21G24G14G08
 129297505.065 6 100751301.86142  24604496.874    24604495.835    24604496.521
        37.000          13.0004
 107393669.423 8  83683385.88247  20436318.315    20436319.269    20436318.351
        53.000          47.0004
 109413831.905 8  85257554.42847  20820749.067    20820749.800    20820748.881
        53.000          44.0004
 129438818.556 6 100861422.06842  24631385.017    24631385.621    24631384.941
        41.000          15.0004
 116092570.541 7  90461756.58745  22091671.845    22091669.717    22091671.022
        46.000          33.0004
 115651941.311 7  90118404.58046  22007829.120    22007830.548    22007828.651
        47.000          37.0004
 119629627.308 7  93217892.73444  22764757.582    22764756.494    22764756.490
        44.000          29.0004
 124973658.097 6  97382080.15944  23781689.516    23781691.299    23781689.472
        41.000          25.0004
 110469589.843 7  86080209.61346  21021651.336    21021649.653    21021650.519
        47.000          40.0004
 118677259.080 7  92475792.05545  22583528.631    22583530.302    22583528.141
        42.000          32.0004
 17  9 19  0 20  0.0000000  0 10G11G32G10G31G18G27G21G24G14G08
 129181734.055 6 100661090.69442  24582466.540    24582465.414    24582465.419
        39.000          12.0004
 107361912.831 8  83658640.49247  20430275.371    20430276.217    20430275.216
        53.000          47.0004
 109421753.079 8  85263726.76847  20822256.452    20822257.244    20822256.176
        52.000          44.0004
 129324443.420 7 100772298.60942  24609620.227    24609621.385    24609620.144
        43.000          15.0004
 116126264.708 8  90488011.76745  22098083.804    22098081.616    22098082.930
        48.000          33.0004
 115701760.850 7  90157224.97646  22017309.581    22017310.712    22017309.148
        45.000          37.0004
 119696173.973 7  93269747.23644  22777420.967    22777419.789    22777419.785
        44.000          29.0004
 125010628.166 7  97410888.01344  23788724.896    23788726.784    23788724.757
        42.000          25.0004
 110408603.674 8  86032687.94446  21010045.757    21010044.344    21010045.188
        49.000          40.0004
 118664286.438 7  92465683.49345  22581060.023    22581061.880    22581059.706
        43.000          32.0004
 17  9 19  0 20 30.0000000  0 10G11G32G10G31G18G27G21G24G14G08
 129066152.753 6 100571027.33542  24560471.746    24560471.414    24560471.618
        39.000          12.0004
 107330647.175 8  83634277.65547  20424325.680    20424326.485    20424325.647
        53.000          47.0004
 109429842.136 8  85270029.92447  20823795.903    20823796.474    20823795.571
        51.000          44.0004
 129209960.275 7 100683091.02943  24587834.529    24587835.052    24587834.571
        44.000          18.0004
 116160051.584 7  90514339.19345  22104513.153    22104510.991    22104512.242
        46.000          33.0004
 115751998.105 7  90196370.86646  22026869.412    22026870.577    22026869.024
        47.000          37.0004
 119763032.574 7  93321844.80544  22790143.559    22790142.728    22790142.841
        43.000          29.0004
 125048107.887 6  97440092.98544  23795857.144    23795858.677    23795856.869
        40.000          25.0004
 110348053.308 8  85985505.86146  20998523.715    20998521.908    20998522.831
        49.000          40.0004
 118651868.543 7  92456007.20145  22578696.989    22578698.676    22578696.511
        46.000          32.0004
 17  9 19  0 21  0.0000000  0 10G11G32G10G31G18G27G21G24G14G08
 128950760.259 6 100481111.09742  24538513.512    24538513.018    24538513.482
        37.000          12.0004
 107299868.541 8  83610294.31547  20418468.770    20418469.546    20418468.628
        52.000          47.0004
 109438095.411 8  85276461.04447  20825366.495    20825367.044    20825366.004
        51.000          44.0004
 129095367.956 7 100593798.38443  24566028.067    24566029.172    24566028.654
        43.000          20.0004
 116193927.735 7  90540736.18745  22110959.525    22110957.492    22110958.731
        47.000          33.0004
 115802646.781 7  90235837.34146  22036507.636    22036508.822    22036507.050
        46.000          36.0004
 119830198.216 7  93374181.62244  22802925.382    22802923.765    22802923.962
        44.000          29.0004
 125086092.163 6  97469691.10844  23803085.017    23803087.094    23803085.035
        40.000          24.0004
 110287935.840 8  85938661.10046  20987083.390    20987081.984    20987082.779
        50.000          40.0004
 118640001.980 7  92446760.51545  22576439.184    22576440.823    22576438.446
        44.000          32.0004
 17  9 19  0 21 30.0000000  0 10G11G32G10G31G18G27G21G24G14G08
 128835564.772 6 100391348.36641  24516592.146    24516592.147    24516591.808
        38.000          11.0004
 107269582.199 8  83586694.57747  20412705.305    20412706.196    20412705.357
        52.000          47.0004
 109446518.382 8  85283024.39447  20826969.036    20826969.913    20826968.839
        50.000          44.0004
 128980675.066 6 100504427.44143  24544202.937    24544204.005    24544203.105
        40.000          20.0004
 116227899.017 7  90567207.30245  22117424.033    22117421.930    22117423.413
        47.000          33.0004
 115853709.809 7  90275626.68546  22046224.584    22046225.691    22046224.049
        45.000          37.0004
 119897675.605 7  93426761.37144  22815765.493    22815764.423    22815764.584
        42.000          29.0004
 125124585.500 6  97499685.91344  23810409.463    23810411.752    23810409.890
        40.000          24.0004
 110228257.484 8  85892158.50446  20975727.021    20975725.521    20975726.448
        49.000          41.0004
 118628691.290 7  92437946.98145  22574286.443    22574288.144    22574286.037
        44.000          32.0004
 17  9 19  0 22  0.0000000  0 10G11G32G10G31G18G27G21G24G14G08
 128720567.944 6 100301740.45342  24494709.014    24494707.961    24494709.428
        37.000          12.0004
 107239786.705 9  83563477.32047  20407035.516    20407036.295    20407035.395
        54.000          47.0004
 109455109.838 8  85289719.02947  20828604.016    20828604.815    20828603.805
        52.000          44.0004
 128865882.522 6 100414978.68541  24522357.595    24522358.756    24522359.408
        37.000           9.0004
 116261964.686 7  90593751.97045  22123906.611    22123904.396    22123905.726
        47.000          33.0004
 115905183.354 8  90315735.92046  22056019.564    22056020.706    22056019.090
        48.000          36.0004
 119965462.036 7  93479581.92044  22828665.273    22828663.642    22828664.034
        44.000          29.0004
 125163585.388 6  97530075.43343  23817831.256    23817833.479    23817831.419
        40.000          23.0004
 110169017.529 8  85845997.52046  20964454.308    20964452.621    20964453.299
        49.000          40.0004
 118617935.039 7  92429565.47845  22572239.709    22572241.537    22572239.241
        43.000          32.0004
 17  9 19  0 22 30.0000000  0 10G11G32G10G31G18G27G21G24G14G08
 128605772.678 6 100212289.60041  24472863.812    24472863.136    24472863.486
        37.000          10.0004
 107210481.896 9  83540642.41747  20401459.044    20401459.824    20401458.888
        54.000          47.0004
 109463869.918 8  85296545.06347  20830271.072    20830271.831    20830270.687
        53.000          44.0004
 128750993.528 6 100325454.83842  24500496.144    24500497.171    24500495.586
        39.000          13.0004
 116296125.082 8  90620370.45645  22130407.191    22130404.958    22130406.291
        48.000          33.0004
 115957064.935 7  90356163.10246  22065892.435    22065893.592    22065891.840
        47.000          36.0004
 120033556.854 7  93532642.77644  22841623.297    22841621.793    22841622.157
        43.000          29.0004
 125203090.880 6  97560858.93443  23825349.213    23825350.958    23825348.867
        39.000          23.0004
 110110216.520 8  85800178.57146  20953264.715    20953263.046    20953263.899
        49.000          40.0004
 118607732.675 7  92421615.57245  22570298.675    22570299.941    22570297.882
        45.000          32.0004
 17  9 19  0 23  0.0000000  0 10G11G32G10G31G18G27G21G24G14G08
 128491179.645 5                  24451058.685                    24451056.970
        35.000
 107181665.336 9  83518187.96747  20395975.410    20395976.267    20395975.280
        54.000          47.0004
 109472796.517 8  85303500.84947  20831969.716    20831970.565    20831969.496
        51.000          44.0004
 128636009.011 6 100235856.57743  24478615.165    24478616.434    24478614.841
        41.000          18.0004
 116330378.498 7  90647061.42045  22136925.129    22136923.239    22136924.566
        47.000          33.0004
 116009349.769 7  90396904.50946  22075842.061    22075843.100    22075841.356
        47.000          36.0004
 120101956.978 7  93585941.52644  22854638.938    22854637.975    22854638.052
        44.000          29.0004
 125243098.439 6  97592033.63643  23832963.180    23832964.856    23832962.166
        41.000          23.0004
 110051853.297 8  85754700.75846  20942158.597    20942156.866    20942157.725
        50.000          40.0004
 118598081.774 7  92414095.38145  22568461.698    22568463.508    22568461.327
        45.000          32.0004
 17  9 19  0 23 30.0000000  0 10G11G32G10G31G18G27G21G24G14G08
 128376791.324 5                  24429290.304
        35.000
 107153336.749 9  83496113.75347  20390584.583    20390585.457    20390584.555
        54.000          47.0004
 109481889.662 8  85310586.40947  20833699.979    20833700.991    20833699.793
        51.000          44.0004
 128520931.489 6 100146185.88043  24456716.918    24456717.937    24456716.131
        38.000          21.0004
 116364725.074 7  90673824.97545  22143461.214    22143459.153    22143460.219
        47.000          33.0004
 116062035.210 7  90437958.07846  22085867.397    22085868.851    22085867.016
        47.000          36.0004
 120170661.399 7  93639477.40144  22867713.128    22867712.050    22867712.267
        43.000          29.0004
 125283606.415 6  97623598.29043  23840670.659    23840672.940    23840670.696
        40.000          23.0004
 109993928.368 8  85709564.46946  20931135.628    20931134.202    20931134.863
        50.000          41.0004
 118588982.317 7  92407004.88545  22566730.441    22566731.825    22566729.901
        46.000          31.0004
 17  9 19  0 24  0.0000000  0 10G11G32G10G31G18G27G21G24G14G08
 128262612.611 5  99944891.18141  24407561.942    24407563.495    24407561.732
        33.000          10.0004
 107125497.577 9  83474420.90047  20385286.929    20385287.755    20385286.891
        55.000          47.0004
 109491151.109 8  85317803.11947  20835462.354    20835463.298    20835462.199
        52.000          44.0004
 128405765.352 5 100056446.17442  24434798.401    24434801.695    24434800.387
        31.000          16.0004
 116399166.886 7  90700662.74245  22150015.308    22150013.289    22150014.497
        46.000          33.0004
 116115120.373 7  90479323.11246  22095969.607    22095970.802    22095969.000
        47.000          36.0004
 120239670.720 7  93693250.85144  22880844.827    22880844.058    22880844.262
        44.000          28.0004
 125324615.866 6  97655553.69743  23848474.327    23848476.511    23848474.808
        40.000          22.0004
 109936444.258 8  85664771.67846  20920196.836    20920195.281    20920196.003
        49.000          40.0004
 118580434.961 7  92400344.59745  22565103.816    22565105.406    22565103.281
        43.000          31.0004
 17  9 19  0 24 30.0000000  0 10G11G32G10G31G18G27G21G24G14G08
 128148644.763 5                  24385876.211
        33.000
 107098146.166 9  83453108.12047  20380082.275    20380082.917    20380082.095
        54.000          47.0004
 109500579.661 8  85325150.04047  20837256.653    20837257.461    20837256.417
        51.000          44.0004
 128290512.378 6  99966638.86742  24412868.917    24412869.273    24412868.299
        38.000          13.0004
 116433703.234 7  90727574.17545  22156587.508    22156585.215    22156586.540
        46.000          33.0004
 116168601.276 7  90520996.52346  22106146.491    22106147.785    22106146.070
        46.000          36.0004
 120308982.614 7  93747260.07044  22894034.776    22894033.758    22894033.642
        42.000          28.0004
 125366123.588 6  97687897.37643  23856373.720    23856375.303    23856372.998
        38.000          22.0004
 109879400.295 8  85620321.86046  20909341.830    20909340.188    20909340.911
        49.000          41.0004
 118572438.170 7  92394113.32745  22563581.981    22563583.622    22563581.604
        44.000          32.0004
 17  9 19  0 25  0.0000000  0 10G11G32G10G31G18G27G21G24G14G08
 128034892.585 5  99767453.03541  24364227.404    24364230.318    24364230.422
        31.000           9.0004
 107071284.222 9  83432176.74347  20374970.474    20374971.296    20374970.492
        54.000          47.0004
 109510177.341 8  85332628.75247  20839082.939    20839083.842    20839082.757
        50.000          43.0004
 128175177.464 6  99876767.55043  24390920.998    24390921.435    24390920.860
        39.000          18.0004
 116468336.311 7  90754560.97645  22163177.983    22163175.707    22163176.944
        46.000          33.0004
 116222477.347 7  90562977.85346  22116398.849    22116400.055    22116398.448
        46.000          36.0004
 120378598.097 7  93801505.86044  22907281.791    22907281.250    22907280.913
        43.000          28.0004
 125408130.657 6  97720630.15643  23864367.141    23864368.924    23864366.792
        39.000          22.0004
 109822798.894 8  85576216.89046  20898571.008    20898569.235    20898570.022
        49.000          41.0004
 118564993.290 7  92388312.11545  22562165.104    22562166.964    22562164.971
        44.000          32.0004
 17  9 19  0 25 30.0000000  0 10G11G32G10G31G18G27G21G24G14G08
 127921354.776 5                  24342622.814                    24342624.489
        31.000
 107044907.067 9  83411623.12747  20369951.137    20369951.850    20369951.040
        54.000          47.0004
 109519939.905 8  85340235.94247  20840940.995    20840941.640    20840940.582
        51.000          44.0004
 128059758.798 5  99786831.00243  24368957.710    24368959.388    24368957.143
        35.000          19.0004
 116503062.280 7  90781620.16245  22169786.018    22169783.908    22169784.980
        45.000          33.0004
 116276741.513 7  90605261.59346  22126725.159    22126726.142    22126724.364
        45.000          36.0004
 120448511.877 7  93855984.07644  22920586.553    22920585.375    22920585.187
        42.000          28.0004
 125450631.255 6  97753747.49643  23872454.842    23872456.539    23872454.236
        40.000          22.0004
 109766636.244 8  85532453.80446  20887883.649    20887881.829    20887882.638
        49.000          41.0004
 118558095.404 7  92382937.12745  22560852.498    22560854.488    22560852.177
        45.000          32.0004
 17  9 19  0 26  0.0000000  0 10G11G32G10G31G18G27G21G24G14G08
 127808040.374 5  99590684.28341  24321060.392    24321061.394    24321060.261
        32.000          10.0004
 107019020.968 9  83391452.14847  20365025.149    20365025.954    20365025.139
        54.000          47.0004
 109529874.102 8  85347976.87547  20842831.372    20842831.984    20842830.948
        52.000          44.0004
 127944265.884 6  99696836.71343  24346979.969    24346981.619    24346979.375
        37.000          19.0004
 116537888.157 7  90808757.19745  22176413.165    22176410.973    22176412.327
        47.000          33.0004
 116331397.783 7  90647850.87246  22137125.646    22137127.057    22137125.152
        46.000          36.0004
 120518729.286 6  93910698.89244  22933948.433    22933947.200    22933947.087
        40.000          27.0004
 125493630.184 6  97787253.15143  23880636.808    23880638.977    23880636.839
        40.000          22.0004
 109710919.838 8  85489038.44246  20877280.981    20877279.295    20877280.102
        49.000          40.0004
 118551750.478 7  92377993.01845  22559645.395    22559647.002    22559644.847
        43.000          32.0004
 17  9 19  0 26 30.0000000  0 10G11G32G10G31G18G27G21G24G14G08
 127694947.652 5  99502560.15742  24299539.834    24299539.257    24299540.185
        34.000          12.0004
 106993620.713 9  83371659.75148  20360191.636    20360192.361    20360191.514
        55.000          48.0004
 109539975.131 8  85355847.80447  20844753.284    20844754.210    20844753.113
        51.000          44.0004
 127828697.234 7  99606783.39844  24324988.620    24324989.119    24324988.308
        42.000          24.0004
 116572809.613 7  90835968.71245  22183058.817    22183056.226    22183057.633
        46.000          33.0004
 116386438.618 7  90690739.80946  22147599.703    22147600.991    22147599.123
        47.000          36.0004
 120589244.139 6  93965645.47844  22947366.986    22947366.118    22947365.664
        41.000          27.0004
 125537121.396 6  97821142.41343  23888913.401    23888914.350    23888913.534
        39.000          22.0004
 109655645.446 8  85445967.50546  20866762.499    20866760.954    20866761.742
        49.000          41.0004
 118545953.723 7  92373476.05945  22558541.978    22558543.940    22558541.704
        43.000          32.0004
 17  9 19  0 27  0.0000000  0 10G11G32G10G31G18G27G21G24G14G08
 127582080.015 5  99414611.39842  24278061.522    24278060.542    24278060.812
        35.000          14.0004
 106968706.165 8  83352245.82747  20355450.613    20355451.284    20355450.489
        53.000          47.0004
 109550243.367 8  85363849.02747  20846707.309    20846708.190    20846707.076
        52.000          43.0004
 127713055.641 7  99516673.16244  24302982.155    24302983.097    24302981.869
        42.000          24.0004
 116607827.202 7  90863255.13245  22189722.035    22189720.001    22189721.142
        47.000          33.0004
 116441861.589 7  90733926.51346  22158146.548    22158147.432    22158145.907
        45.000          36.0004
 120660055.633 6  94020823.22244  22960841.753    22960840.903    22960840.931
