     3.01           OBSERVATION DATA    G (GPS)             RINEX VERSION / TYPE
GNSS Simulator      Robert Bosch Gmbh.  20180424 142338 UTC PGM / RUN BY / DATE
C1 modelled using GNSS SIM                                  COMMENT
https://github.com/PINAProject/PINA                         COMMENT
Header contents might be invalid in some cases.             COMMENT
---                                                         MARKER NAME
                                                            MARKER NUMBER
---                                                         MARKER TYPE
CC/ENG2             VMPS System Simulation                  OBSERVER / AGENCY
---                 ---                 1.0.0               REC # / TYPE / VERS
---                 No modelled antenna                     ANT # / TYPE
        0.0000        0.0000        0.0000                  APPROX POSITION XYZ
        0.0000        0.0000        0.0000                  ANTENNA: DELTA H/E/N
G    1 C1C                                                  SYS / # / OBS TYPES
1                                                           SIGNAL STRENGTH UNIT
     1.000                                                  INTERVAL
  2017    11     9     0     0    3.0000000     GPS         TIME OF FIRST OBS
  2017    11     9     0     5    3.0000000     GPS         TIME OF LAST OBS
     8                                                      # OF SATELLITES
                                                            END OF HEADER
> 2017 11 09 00 00  3.0000000  0  8      
G02  22968525.892 0
G06  22926255.738 0
G12  20155173.487 0
G14  23053520.457 0
G19  24335168.837 0
G25  20846701.658 0
G29  22497440.534 0
G32  22508796.529 0
> 2017 11 09 00 00  4.0000000  0  8      
G02  22968195.657 0
G06  22926248.010 0
G12  20155346.480 0
G14  23053278.683 0
G19  24335877.959 0
G25  20846409.481 0
G29  22496788.308 0
G32  22508844.176 0
> 2017 11 09 00 00  5.0000000  0  8      
G02  22967865.189 0
G06  22926240.349 0
G12  20155519.567 0
G14  23053037.414 0
G19  24336587.234 0
G25  20846117.544 0
G29  22496135.914 0
G32  22508892.227 0
> 2017 11 09 00 00  6.0000000  0  8      
G02  22967534.444 0
G06  22926232.728 0
G12  20155692.746 0
G14  23052796.699 0
G19  24337296.651 0
G25  20845825.877 0
G29  22495483.349 0
G32  22508940.727 0
> 2017 11 09 00 00  7.0000000  0  8      
G02  22967203.417 0
G06  22926225.157 0
G12  20155866.015 0
G14  23052556.543 0
G19  24338006.226 0
G25  20845534.475 0
G29  22494830.592 0
G32  22508989.673 0
> 2017 11 09 00 00  8.0000000  0  8      
G02  22966872.111 0
G06  22926217.633 0
G12  20156039.379 0
G14  23052316.948 0
G19  24338715.952 0
G25  20845243.344 0
G29  22494177.654 0
G32  22509039.070 0
> 2017 11 09 00 00  9.0000000  0  8      
G02  22966540.525 0
G06  22926210.156 0
G12  20156212.838 0
G14  23052077.913 0
G19  24339425.832 0
G25  20844952.484 0
G29  22493524.534 0
G32  22509088.917 0
> 2017 11 09 00 00 10.0000000  0  8      
G02  22966208.660 0
G06  22926202.726 0
G12  20156386.391 0
G14  23051839.439 0
G19  24340135.863 0
G25  20844661.895 0
G29  22492871.233 0
G32  22509139.215 0
> 2017 11 09 00 00 11.0000000  0  8      
G02  22965876.514 0
G06  22926195.346 0
G12  20156560.034 0
G14  23051601.523 0
G19  24340846.052 0
G25  20844371.571 0
G29  22492217.740 0
G32  22509189.958 0
> 2017 11 09 00 00 12.0000000  0  8      
G02  22965544.088 0
G06  22926188.010 0
G12  20156733.764 0
G14  23051364.159 0
G19  24341556.388 0
G25  20844081.511 0
G29  22491564.067 0
G32  22509241.145 0
> 2017 11 09 00 00 13.0000000  0  8      
G02  22965211.389 0
G06  22926180.726 0
G12  20156907.590 0
G14  23051127.352 0
G19  24342266.880 0
G25  20843791.719 0
G29  22490910.213 0
G32  22509292.778 0
> 2017 11 09 00 00 14.0000000  0  8      
G02  22964878.429 0
G06  22926173.497 0
G12  20157081.511 0
G14  23050891.086 0
G19  24342977.523 0
G25  20843502.189 0
G29  22490256.185 0
G32  22509344.846 0
> 2017 11 09 00 00 15.0000000  0  8      
G02  22964545.265 0
G06  22926166.334 0
G12  20157255.513 0
G14  23050655.278 0
G19  24343688.295 0
G25  20843212.878 0
G29  22489602.019 0
G32  22509397.286 0
> 2017 11 09 00 00 16.0000000  0  8      
G02  22964211.919 0
G06  22926159.235 0
G12  20157429.604 0
G14  23050419.915 0
G19  24344399.183 0
G25  20842923.789 0
G29  22488947.742 0
G32  22509450.096 0
> 2017 11 09 00 00 17.0000000  0  8      
G02  22963878.384 0
G06  22926152.212 0
G12  20157603.785 0
G14  23050185.002 0
G19  24345110.203 0
G25  20842634.920 0
G29  22488293.335 0
G32  22509503.272 0
> 2017 11 09 00 00 18.0000000  0  8      
G02  22963544.667 0
G06  22926145.253 0
G12  20157778.054 0
G14  23049950.533 0
G19  24345821.338 0
G25  20842346.273 0
G29  22487638.819 0
G32  22509556.817 0
> 2017 11 09 00 00 19.0000000  0  8      
G02  22963210.763 0
G06  22926138.370 0
G12  20157952.413 0
G14  23049716.513 0
G19  24346532.605 0
G25  20842057.845 0
G29  22486984.171 0
G32  22509610.728 0
> 2017 11 09 00 00 20.0000000  0  8      
G02  22962876.673 0
G06  22926131.555 0
G12  20158126.857 0
G14  23049482.937 0
G19  24347243.993 0
G25  20841769.634 0
G29  22486329.404 0
G32  22509665.004 0
> 2017 11 09 00 00 21.0000000  0  8      
G02  22962542.397 0
G06  22926124.811 0
G12  20158301.383 0
G14  23049249.801 0
G19  24347955.508 0
G25  20841481.633 0
G29  22485674.508 0
G32  22509719.638 0
> 2017 11 09 00 00 22.0000000  0  8      
G02  22962207.941 0
G06  22926118.140 0
G12  20158476.006 0
G14  23049017.116 0
G19  24348667.146 0
G25  20841193.862 0
G29  22485019.500 0
G32  22509774.645 0
> 2017 11 09 00 00 23.0000000  0  8      
G02  22961873.301 0
G06  22926111.535 0
G12  20158650.706 0
G14  23048784.864 0
G19  24349378.900 0
G25  20840906.299 0
G29  22484364.374 0
G32  22509830.008 0
> 2017 11 09 00 00 24.0000000  0  8      
G02  22961538.481 0
G06  22926105.006 0
G12  20158825.499 0
G14  23048553.060 0
G19  24350090.783 0
G25  20840618.960 0
G29  22483709.127 0
G32  22509885.739 0
> 2017 11 09 00 00 25.0000000  0  8      
G02  22961203.477 0
G06  22926098.547 0
G12  20159000.378 0
G14  23048321.698 0
G19  24350802.787 0
G25  20840331.837 0
G29  22483053.761 0
G32  22509941.832 0
> 2017 11 09 00 00 26.0000000  0  8      
G02  22960868.290 0
G06  22926092.158 0
G12  20159175.342 0
G14  23048090.777 0
G19  24351514.914 0
G25  20840044.930 0
G29  22482398.275 0
G32  22509998.288 0
> 2017 11 09 00 00 27.0000000  0  8      
G02  22960532.918 0
G06  22926085.847 0
G12  20159350.395 0
G14  23047860.304 0
G19  24352227.173 0
G25  20839758.240 0
G29  22481742.659 0
G32  22510055.108 0
> 2017 11 09 00 00 28.0000000  0  8      
G02  22960197.367 0
G06  22926079.605 0
G12  20159525.537 0
G14  23047630.273 0
G19  24352939.549 0
G25  20839471.773 0
G29  22481086.934 0
G32  22510112.294 0
> 2017 11 09 00 00 29.0000000  0  8      
G02  22959861.633 0
G06  22926073.433 0
G12  20159700.763 0
G14  23047400.683 0
G19  24353652.046 0
G25  20839185.521 0
G29  22480431.090 0
G32  22510169.842 0
> 2017 11 09 00 00 30.0000000  0  8      
G02  22959525.717 0
G06  22926067.333 0
G12  20159876.074 0
G14  23047171.535 0
G19  24354364.666 0
G25  20838899.486 0
G29  22479775.127 0
G32  22510227.753 0
> 2017 11 09 00 00 31.0000000  0  8      
G02  22959189.358 0
G06  22926060.880 0
G12  20160051.330 0
G14  23046942.981 0
G19  24355076.946 0
G25  20838613.836 0
G29  22479119.399 0
G32  22510286.298 0
> 2017 11 09 00 00 32.0000000  0  8      
G02  22958851.261 0
G06  22926051.630 0
G12  20160225.711 0
G14  23046715.648 0
G19  24355786.102 0
G25  20838329.451 0
G29  22478466.142 0
G32  22510346.891 0
> 2017 11 09 00 00 33.0000000  0  8      
G02  22958510.760 0
G06  22926036.975 0
G12  20160398.262 0
G14  23046489.284 0
G19  24356488.691 0
G25  20838046.926 0
G29  22477818.466 0
G32  22510410.457 0
> 2017 11 09 00 00 34.0000000  0  8      
G02  22958169.064 0
G06  22926016.979 0
G12  20160568.836 0
G14  23046262.319 0
G19  24357184.029 0
G25  20837765.618 0
G29  22477177.454 0
G32  22510475.952 0
> 2017 11 09 00 00 35.0000000  0  8      
G02  22957827.838 0
G06  22925993.073 0
G12  20160737.804 0
G14  23046033.213 0
G19  24357873.165 0
G25  20837484.555 0
G29  22476542.683 0
G32  22510541.796 0
> 2017 11 09 00 00 36.0000000  0  8      
G02  22957488.873 0
G06  22925966.736 0
G12  20160905.517 0
G14  23045800.247 0
G19  24358557.137 0
G25  20837202.666 0
G29  22475913.777 0
G32  22510606.263 0
> 2017 11 09 00 00 37.0000000  0  8      
G02  22957151.752 0
G06  22925939.419 0
G12  20161072.618 0
G14  23045564.605 0
G19  24359238.369 0
G25  20836920.034 0
G29  22475288.235 0
G32  22510669.515 0
> 2017 11 09 00 00 38.0000000  0  8      
G02  22956811.985 0
G06  22925912.373 0
G12  20161240.204 0
G14  23045332.722 0
G19  24359921.609 0
G25  20836638.855 0
G29  22474659.870 0
G32  22510735.189 0
> 2017 11 09 00 00 39.0000000  0  8      
G02  22956469.265 0
G06  22925887.947 0
G12  20161409.272 0
G14  23045106.035 0
G19  24360610.534 0
G25  20836359.086 0
G29  22474025.018 0
G32  22510803.240 0
> 2017 11 09 00 00 40.0000000  0  8      
G02  22956125.715 0
G06  22925868.267 0
G12  20161580.396 0
G14  23044882.682 0
G19  24361306.928 0
G25  20836079.444 0
G29  22473382.697 0
G32  22510871.585 0
> 2017 11 09 00 00 41.0000000  0  8      
G02  22955783.849 0
G06  22925855.238 0
G12  20161754.028 0
G14  23044660.210 0
G19  24362011.993 0
G25  20835798.484 0
G29  22472732.644 0
G32  22510937.857 0
> 2017 11 09 00 00 42.0000000  0  8      
G02  22955445.653 0
G06  22925849.615 0
G12  20161930.214 0
G14  23044436.339 0
G19  24362725.568 0
G25  20835515.121 0
G29  22472075.716 0
G32  22511000.271 0
> 2017 11 09 00 00 43.0000000  0  8      
G02  22955107.073 0
G06  22925844.217 0
G12  20162106.566 0
G14  23044213.238 0
G19  24363439.623 0
G25  20835232.057 0
G29  22471418.249 0
G32  22511063.191 0
> 2017 11 09 00 00 44.0000000  0  8      
G02  22954766.077 0
G06  22925835.606 0
G12  20162281.963 0
G14  23043992.071 0
G19  24364150.365 0
G25  20834950.648 0
G29  22470763.199 0
G32  22511128.798 0
> 2017 11 09 00 00 45.0000000  0  8      
G02  22954424.454 0
G06  22925826.419 0
G12  20162457.238 0
G14  23043771.650 0
G19  24364860.554 0
G25  20834669.742 0
G29  22470108.527 0
G32  22511195.233 0
> 2017 11 09 00 00 46.0000000  0  8      
G02  22954082.267 0
G06  22925816.250 0
G12  20162632.219 0
G14  23043551.711 0
G19  24365569.547 0
G25  20834389.340 0
G29  22469454.878 0
G32  22511262.492 0
> 2017 11 09 00 00 47.0000000  0  8      
G02  22953739.409 0
G06  22925804.646 0
G12  20162806.732 0
G14  23043332.195 0
G19  24366276.742 0
G25  20834109.534 0
G29  22468802.796 0
G32  22511330.725 0
> 2017 11 09 00 00 48.0000000  0  8      
G02  22953396.075 0
G06  22925791.871 0
G12  20162980.863 0
G14  23043112.967 0
G19  24366982.404 0
G25  20833830.203 0
G29  22468152.091 0
G32  22511399.736 0
> 2017 11 09 00 00 49.0000000  0  8      
G02  22953052.356 0
G06  22925778.037 0
G12  20163154.653 0
G14  23042893.964 0
G19  24367686.639 0
G25  20833551.302 0
G29  22467502.703 0
G32  22511469.444 0
> 2017 11 09 00 00 50.0000000  0  8      
G02  22952708.274 0
G06  22925763.084 0
G12  20163328.049 0
G14  23042675.104 0
G19  24368389.348 0
G25  20833272.790 0
G29  22466854.718 0
G32  22511539.808 0
> 2017 11 09 00 00 51.0000000  0  8      
G02  22952363.902 0
G06  22925747.063 0
G12  20163501.086 0
G14  23042456.340 0
G19  24369090.555 0
G25  20832994.657 0
G29  22466208.151 0
G32  22511610.788 0
> 2017 11 09 00 00 52.0000000  0  8      
G02  22952019.306 0
G06  22925730.024 0
G12  20163673.771 0
G14  23042237.603 0
G19  24369790.293 0
G25  20832716.858 0
G29  22465562.992 0
G32  22511682.317 0
> 2017 11 09 00 00 53.0000000  0  8      
G02  22951674.545 0
G06  22925712.002 0
G12  20163846.104 0
G14  23042018.824 0
G19  24370488.580 0
G25  20832439.349 0
G29  22464919.240 0
G32  22511754.333 0
> 2017 11 09 00 00 54.0000000  0  8      
G02  22951329.684 0
G06  22925693.030 0
G12  20164018.094 0
G14  23041799.936 0
G19  24371185.419 0
G25  20832162.099 0
G29  22464276.917 0
G32  22511826.781 0
> 2017 11 09 00 00 55.0000000  0  8      
G02  22950984.784 0
G06  22925673.164 0
G12  20164189.751 0
G14  23041580.878 0
G19  24371880.854 0
G25  20831885.066 0
G29  22463636.000 0
G32  22511899.597 0
> 2017 11 09 00 00 56.0000000  0  8      
G02  22950639.912 0
G06  22925652.448 0
G12  20164361.085 0
G14  23041361.585 0
G19  24372574.910 0
G25  20831608.211 0
G29  22462996.487 0
G32  22511972.720 0
> 2017 11 09 00 00 57.0000000  0  8      
G02  22950295.134 0
G06  22925630.933 0
G12  20164532.115 0
G14  23041141.998 0
G19  24373267.618 0
G25  20831331.505 0
G29  22462358.377 0
G32  22512046.096 0
> 2017 11 09 00 00 58.0000000  0  8      
G02  22949950.515 0
G06  22925608.671 0
G12  20164702.855 0
G14  23040922.058 0
G19  24373959.015 0
G25  20831054.911 0
G29  22461721.656 0
G32  22512119.665 0
> 2017 11 09 00 00 59.0000000  0  8      
G02  22949606.113 0
G06  22925585.708 0
G12  20164873.299 0
G14  23040701.688 0
G19  24374649.132 0
G25  20830778.373 0
G29  22461086.306 0
G32  22512193.350 0
> 2017 11 09 00 01  0.0000000  0  8      
G02  22949262.001 0
G06  22925562.105 0
G12  20165043.483 0
G14  23040480.844 0
G19  24375338.012 0
G25  20830501.873 0
G29  22460452.321 0
G32  22512267.108 0
> 2017 11 09 00 01  1.0000000  0  8      
G02  22948918.234 0
G06  22925537.922 0
G12  20165213.409 0
G14  23040259.463 0
G19  24376025.710 0
G25  20830225.358 0
G29  22459819.659 0
G32  22512340.866 0
> 2017 11 09 00 01  2.0000000  0  8      
G02  22948574.881 0
G06  22925513.214 0
G12  20165383.104 0
G14  23040037.492 0
G19  24376712.262 0
G25  20829948.805 0
G29  22459188.318 0
G32  22512414.573 0
> 2017 11 09 00 01  3.0000000  0  8      
G02  22948231.999 0
G06  22925488.041 0
G12  20165552.572 0
G14  23039814.867 0
G19  24377397.722 0
G25  20829672.159 0
G29  22458558.255 0
G32  22512488.157 0
> 2017 11 09 00 01  4.0000000  0  8      
G02  22947889.652 0
G06  22925462.459 0
G12  20165721.833 0
G14  23039591.538 0
G19  24378082.132 0
G25  20829395.392 0
G29  22457929.457 0
G32  22512561.564 0
> 2017 11 09 00 01  5.0000000  0  8      
G02  22947547.899 0
G06  22925436.538 0
G12  20165890.908 0
G14  23039367.454 0
G19  24378765.558 0
G25  20829118.466 0
G29  22457301.880 0
G32  22512634.734 0
> 2017 11 09 00 01  6.0000000  0  8      
G02  22947206.802 0
G06  22925410.343 0
G12  20166059.818 0
G14  23039142.569 0
G19  24379448.058 0
G25  20828841.347 0
G29  22456675.492 0
G32  22512707.610 0
> 2017 11 09 00 01  7.0000000  0  8      
G02  22946866.417 0
G06  22925383.938 0
G12  20166228.586 0
G14  23038916.839 0
G19  24380129.689 0
G25  20828564.004 0
G29  22456050.260 0
G32  22512780.141 0
> 2017 11 09 00 01  8.0000000  0  8      
G02  22946526.797 0
G06  22925357.379 0
G12  20166397.213 0
G14  23038690.201 0
G19  24380810.503 0
G25  20828286.384 0
G29  22455426.141 0
G32  22512852.253 0
> 2017 11 09 00 01  9.0000000  0  8      
G02  22946188.005 0
G06  22925330.744 0
G12  20166565.745 0
G14  23038462.634 0
G19  24381490.573 0
G25  20828008.480 0
G29  22454803.100 0
G32  22512923.913 0
> 2017 11 09 00 01 10.0000000  0  8      
G02  22945850.081 0
G06  22925304.089 0
G12  20166734.174 0
G14  23038234.078 0
G19  24382169.959 0
G25  20827730.228 0
G29  22454181.078 0
G32  22512995.045 0
> 2017 11 09 00 01 11.0000000  0  8      
G02  22945513.091 0
G06  22925277.489 0
G12  20166902.549 0
G14  23038004.513 0
G19  24382848.730 0
G25  20827451.626 0
G29  22453560.048 0
G32  22513065.618 0
> 2017 11 09 00 01 12.0000000  0  8      
G02  22945177.075 0
G06  22925251.004 0
G12  20167070.870 0
G14  23037773.888 0
G19  24383526.948 0
G25  20827172.621 0
G29  22452939.951 0
G32  22513135.566 0
> 2017 11 09 00 01 13.0000000  0  8      
G02  22944842.081 0
G06  22925224.703 0
G12  20167239.165 0
G14  23037542.175 0
G19  24384204.689 0
G25  20826893.188 0
G29  22452320.734 0
G32  22513204.843 0
> 2017 11 09 00 01 14.0000000  0  8      
G02  22944508.155 0
G06  22925198.659 0
G12  20167407.460 0
G14  23037309.349 0
G19  24384882.026 0
G25  20826613.301 0
G29  22451702.342 0
G32  22513273.405 0
> 2017 11 09 00 01 15.0000000  0  8      
G02  22944175.343 0
G06  22925172.930 0
G12  20167575.778 0
G14  23037075.380 0
G19  24385559.022 0
G25  20826332.937 0
G29  22451084.736 0
G32  22513341.210 0
> 2017 11 09 00 01 16.0000000  0  8      
G02  22943843.682 0
G06  22925147.582 0
G12  20167744.132 0
G14  23036840.236 0
G19  24386235.747 0
G25  20826052.059 0
G29  22450467.854 0
G32  22513408.206 0
> 2017 11 09 00 01 17.0000000  0  8      
G02  22943513.213 0
G06  22925122.685 0
G12  20167912.551 0
G14  23036603.904 0
G19  24386912.282 0
G25  20825770.647 0
G29  22449851.633 0
G32  22513474.357 0
> 2017 11 09 00 01 18.0000000  0  8      
G02  22943183.971 0
G06  22925098.302 0
G12  20168081.059 0
G14  23036366.364 0
G19  24387588.696 0
G25  20825488.681 0
G29  22449236.024 0
G32  22513539.627 0
> 2017 11 09 00 01 19.0000000  0  8      
G02  22942855.985 0
G06  22925074.496 0
G12  20168249.671 0
G14  23036127.598 0
G19  24388265.067 0
G25  20825206.130 0
G29  22448620.955 0
G32  22513603.972 0
> 2017 11 09 00 01 20.0000000  0  8      
G02  22942529.292 0
G06  22925051.332 0
G12  20168418.419 0
G14  23035887.596 0
G19  24388941.466 0
G25  20824922.982 0
G29  22448006.375 0
G32  22513667.364 0
> 2017 11 09 00 01 21.0000000  0  8      
G02  22942203.917 0
G06  22925028.875 0
G12  20168587.324 0
G14  23035646.351 0
G19  24389617.973 0
G25  20824639.216 0
G29  22447392.215 0
G32  22513729.770 0
> 2017 11 09 00 01 22.0000000  0  8      
G02  22941879.884 0
G06  22925007.172 0
G12  20168756.397 0
G14  23035403.846 0
G19  24390294.644 0
G25  20824354.810 0
G29  22446778.426 0
G32  22513791.158 0
> 2017 11 09 00 01 23.0000000  0  8      
G02  22941557.217 0
G06  22924986.289 0
G12  20168925.667 0
G14  23035160.082 0
G19  24390971.563 0
G25  20824069.750 0
G29  22446164.939 0
G32  22513851.502 0
> 2017 11 09 00 01 24.0000000  0  8      
G02  22941235.931 0
G06  22924966.290 0
G12  20169095.158 0
G14  23034915.065 0
G19  24391648.814 0
G25  20823784.022 0
G29  22445551.674 0
G32  22513910.779 0
> 2017 11 09 00 01 25.0000000  0  8      
G02  22940916.050 0
G06  22924947.220 0
G12  20169264.890 0
G14  23034668.793 0
G19  24392326.451 0
G25  20823497.617 0
G29  22444938.593 0
G32  22513968.970 0
> 2017 11 09 00 01 26.0000000  0  8      
G02  22940597.577 0
G06  22924929.135 0
G12  20169434.872 0
G14  23034421.264 0
G19  24393004.553 0
G25  20823210.510 0
G29  22444325.611 0
G32  22514026.046 0
> 2017 11 09 00 01 27.0000000  0  8      
G02  22940280.533 0
G06  22924912.093 0
G12  20169605.145 0
G14  23034172.502 0
G19  24393683.193 0
G25  20822922.713 0
G29  22443712.677 0
G32  22514082.006 0
> 2017 11 09 00 01 28.0000000  0  8      
G02  22939964.917 0
G06  22924896.136 0
G12  20169775.712 0
G14  23033922.506 0
G19  24394362.436 0
G25  20822634.200 0
G29  22443099.717 0
G32  22514136.824 0
> 2017 11 09 00 01 29.0000000  0  8      
G02  22939650.739 0
G06  22924881.318 0
G12  20169946.605 0
G14  23033671.302 0
G19  24395042.355 0
G25  20822344.980 0
G29  22442486.674 0
G32  22514190.500 0
> 2017 11 09 00 01 30.0000000  0  8      
G02  22939337.999 0
G06  22924867.682 0
G12  20170117.839 0
G14  23033418.902 0
G19  24395723.013 0
G25  20822055.043 0
G29  22441873.483 0
G32  22514243.023 0
> 2017 11 09 00 01 31.0000000  0  8      
G02  22939026.693 0
G06  22924855.266 0
G12  20170289.423 0
G14  23033165.321 0
G19  24396404.471 0
G25  20821764.381 0
G29  22441260.079 0
G32  22514294.382 0
> 2017 11 09 00 01 32.0000000  0  8      
G02  22938716.820 0
G06  22924844.115 0
G12  20170461.390 0
G14  23032910.595 0
G19  24397086.796 0
G25  20821473.007 0
G29  22440646.407 0
G32  22514344.589 0
> 2017 11 09 00 01 33.0000000  0  8      
G02  22938408.366 0
G06  22924834.271 0
G12  20170633.748 0
G14  23032654.746 0
G19  24397770.059 0
G25  20821180.911 0
G29  22440032.383 0
G32  22514393.634 0
> 2017 11 09 00 01 34.0000000  0  8      
G02  22938101.328 0
G06  22924825.761 0
G12  20170806.518 0
G14  23032397.802 0
G19  24398454.302 0
G25  20820888.107 0
G29  22439417.976 0
G32  22514441.528 0
> 2017 11 09 00 01 35.0000000  0  8      
G02  22937795.683 0
G06  22924818.621 0
G12  20170979.707 0
G14  23032139.792 0
G19  24399139.593 0
G25  20820594.586 0
G29  22438803.101 0
G32  22514488.271 0
> 2017 11 09 00 01 36.0000000  0  8      
G02  22937491.423 0
G06  22924812.878 0
G12  20171153.337 0
G14  23031880.754 0
G19  24399825.979 0
G25  20820300.366 0
G29  22438187.718 0
G32  22514533.879 0
> 2017 11 09 00 01 37.0000000  0  8      
G02  22937188.521 0
G06  22924808.561 0
G12  20171327.417 0
G14  23031620.725 0
G19  24400513.520 0
G25  20820005.449 0
G29  22437571.755 0
G32  22514578.360 0
> 2017 11 09 00 01 38.0000000  0  8      
G02  22936886.962 0
G06  22924805.693 0
G12  20171501.967 0
G14  23031359.746 0
G19  24401202.259 0
G25  20819709.855 0
G29  22436955.171 0
G32  22514621.736 0
> 2017 11 09 00 01 39.0000000  0  8      
G02  22936586.713 0
G06  22924804.296 0
G12  20171676.994 0
G14  23031097.859 0
G19  24401892.251 0
G25  20819413.587 0
G29  22436337.897 0
G32  22514664.020 0
> 2017 11 09 00 01 40.0000000  0  8      
G02  22936287.749 0
G06  22924804.390 0
G12  20171852.512 0
G14  23030835.110 0
G19  24402583.540 0
G25  20819116.662 0
G29  22435719.882 0
G32  22514705.237 0
> 2017 11 09 00 01 41.0000000  0  8      
G02  22935990.041 0
G06  22924805.982 0
G12  20172028.529 0
G14  23030571.541 0
G19  24403276.157 0
G25  20818819.098 0
G29  22435101.089 0
G32  22514745.409 0
> 2017 11 09 00 01 42.0000000  0  8      
G02  22935693.552 0
G06  22924809.088 0
G12  20172205.053 0
G14  23030307.202 0
G19  24403970.146 0
G25  20818520.907 0
G29  22434481.458 0
G32  22514784.560 0
> 2017 11 09 00 01 43.0000000  0  8      
G02  22935398.252 0
G06  22924813.723 0
G12  20172382.105 0
G14  23030042.152 0
G19  24404665.553 0
G25  20818222.117 0
G29  22433860.942 0
G32  22514822.727 0
> 2017 11 09 00 01 44.0000000  0  8      
G02  22935104.093 0
G06  22924819.883 0
G12  20172559.675 0
G14  23029776.433 0
G19  24405362.399 0
G25  20817922.737 0
G29  22433239.496 0
G32  22514859.933 0
> 2017 11 09 00 01 45.0000000  0  8      
G02  22934811.041 0
G06  22924827.572 0
G12  20172737.777 0
G14  23029510.104 0
G19  24406060.715 0
G25  20817622.794 0
G29  22432617.081 0
G32  22514896.215 0
> 2017 11 09 00 01 46.0000000  0  8      
G02  22934519.052 0
G06  22924836.788 0
G12  20172916.416 0
G14  23029243.217 0
G19  24406760.522 0
G25  20817322.311 0
G29  22431993.663 0
G32  22514931.610 0
> 2017 11 09 00 01 47.0000000  0  8      
G02  22934228.082 0
G06  22924847.534 0
G12  20173095.606 0
G14  23028975.843 0
G19  24407461.856 0
G25  20817021.322 0
G29  22431369.195 0
G32  22514966.164 0
> 2017 11 09 00 01 48.0000000  0  8      
G02  22933938.076 0
G06  22924859.795 0
G12  20173275.328 0
G14  23028708.022 0
G19  24408164.729 0
G25  20816719.830 0
G29  22430743.635 0
G32  22514999.900 0
> 2017 11 09 00 01 49.0000000  0  8      
G02  22933648.994 0
G06  22924873.568 0
G12  20173455.609 0
G14  23028439.831 0
G19  24408869.158 0
G25  20816417.888 0
G29  22430116.966 0
G32  22515032.879 0
> 2017 11 09 00 01 50.0000000  0  8      
G02  22933360.780 0
G06  22924888.827 0
G12  20173636.431 0
G14  23028171.318 0
G19  24409575.146 0
G25  20816115.507 0
G29  22429489.158 0
G32  22515065.137 0
> 2017 11 09 00 01 51.0000000  0  8      
G02  22933073.381 0
G06  22924905.564 0
G12  20173817.803 0
G14  23027902.551 0
G19  24410282.713 0
G25  20815812.724 0
G29  22428860.176 0
G32  22515096.722 0
> 2017 11 09 00 01 52.0000000  0  8      
G02  22932786.745 0
G06  22924923.763 0
G12  20173999.728 0
G14  23027633.598 0
G19  24410991.866 0
G25  20815509.571 0
G29  22428229.996 0
G32  22515127.687 0
> 2017 11 09 00 01 53.0000000  0  8      
G02  22932500.811 0
G06  22924943.392 0
G12  20174182.190 0
G14  23027364.511 0
G19  24411702.597 0
G25  20815206.070 0
G29  22427598.600 0
G32  22515158.073 0
> 2017 11 09 00 01 54.0000000  0  8      
G02  22932215.524 0
G06  22924964.434 0
G12  20174365.200 0
G14  23027095.366 0
G19  24412414.917 0
G25  20814902.265 0
G29  22426965.963 0
G32  22515187.942 0
> 2017 11 09 00 01 55.0000000  0  8      
G02  22931930.826 0
G06  22924986.856 0
G12  20174548.745 0
G14  23026826.221 0
G19  24413128.813 0
G25  20814598.182 0
G29  22426332.075 0
G32  22515217.341 0
> 2017 11 09 00 01 56.0000000  0  8      
G02  22931646.656 0
G06  22925010.623 0
G12  20174732.823 0
G14  23026557.142 0
G19  24413844.273 0
G25  20814293.858 0
G29  22425696.927 0
G32  22515246.328 0
> 2017 11 09 00 01 57.0000000  0  8      
G02  22931362.955 0
G06  22925035.707 0
G12  20174917.428 0
G14  23026288.195 0
G19  24414561.290 0
G25  20813989.330 0
G29  22425060.507 0
G32  22515274.958 0
> 2017 11 09 00 01 58.0000000  0  8      
G02  22931079.661 0
G06  22925062.071 0
G12  20175102.555 0
G14  23026019.447 0
G19  24415279.851 0
G25  20813684.634 0
G29  22424422.806 0
G32  22515303.292 0
> 2017 11 09 00 01 59.0000000  0  8      
G02  22930796.704 0
G06  22925089.669 0
G12  20175288.183 0
G14  23025750.954 0
G19  24415999.931 0
G25  20813379.794 0
G29  22423783.815 0
G32  22515331.376 0
> 2017 11 09 00 02  0.0000000  0  8      
G02  22930514.033 0
G06  22925118.470 0
G12  20175474.322 0
G14  23025482.794 0
G19  24416721.517 0
G25  20813074.864 0
G29  22423143.544 0
G32  22515359.284 0
> 2017 11 09 00 02  1.0000000  0  8      
G02  22930231.576 0
G06  22925148.418 0
G12  20175660.945 0
G14  23025215.018 0
G19  24417444.569 0
G25  20812769.870 0
G29  22422501.995 0
G32  22515387.065 0
> 2017 11 09 00 02  2.0000000  0  8      
G02  22929949.273 0
G06  22925179.473 0
G12  20175848.050 0
G14  23024947.697 0
G19  24418169.069 0
G25  20812464.853 0
G29  22421859.169 0
G32  22515414.785 0
> 2017 11 09 00 02  3.0000000  0  8      
G02  22929667.062 0
G06  22925211.592 0
G12  20176035.632 0
G14  23024680.898 0
G19  24418894.988 0
G25  20812159.858 0
G29  22421215.077 0
G32  22515442.508 0
> 2017 11 09 00 02  4.0000000  0  8      
G02  22929384.870 0
G06  22925244.709 0
G12  20176223.651 0
G14  23024414.666 0
G19  24419622.279 0
G25  20811854.900 0
G29  22420569.725 0
G32  22515470.279 0
> 2017 11 09 00 02  5.0000000  0  8      
G02  22929102.641 0
G06  22925278.783 0
G12  20176412.116 0
G14  23024149.076 0
G19  24420350.914 0
G25  20811550.034 0
G29  22419923.131 0
G32  22515498.173 0
> 2017 11 09 00 02  6.0000000  0  8      
G02  22928820.312 0
G06  22925313.753 0
G12  20176601.007 0
G14  23023884.182 0
G19  24421080.845 0
G25  20811245.297 0
G29  22419275.320 0
G32  22515526.248 0
> 2017 11 09 00 02  7.0000000  0  8      
G02  22928537.819 0
G06  22925349.574 0
G12  20176790.315 0
G14  23023620.052 0
G19  24421812.039 0
G25  20810940.730 0
G29  22418626.301 0
G32  22515554.569 0
> 2017 11 09 00 02  8.0000000  0  8      
G02  22928255.095 0
G06  22925386.173 0
G12  20176980.006 0
G14  23023356.725 0
G19  24422544.437 0
G25  20810636.353 0
G29  22417976.102 0
G32  22515583.185 0
> 2017 11 09 00 02  9.0000000  0  8      
G02  22927972.082 0
G06  22925423.494 0
G12  20177170.072 0
G14  23023094.265 0
G19  24423277.990 0
G25  20810332.215 0
G29  22417324.753 0
G32  22515612.164 0
> 2017 11 09 00 02 10.0000000  0  8      
G02  22927688.725 0
G06  22925461.485 0
G12  20177360.506 0
G14  23022832.731 0
G19  24424012.652 0
G25  20810028.360 0
G29  22416672.286 0
G32  22515641.571 0
> 2017 11 09 00 02 11.0000000  0  8      
G02  22927404.952 0
G06  22925500.074 0
G12  20177551.269 0
G14  23022572.163 0
G19  24424748.367 0
G25  20809724.804 0
G29  22416018.716 0
G32  22515671.452 0
> 2017 11 09 00 02 12.0000000  0  8      
G02  22927120.712 0
G06  22925539.199 0
G12  20177742.353 0
G14  23022312.617 0
G19  24425485.073 0
G25  20809421.597 0
G29  22415364.095 0
G32  22515701.874 0
> 2017 11 09 00 02 13.0000000  0  8      
G02  22926835.945 0
G06  22925578.803 0
G12  20177933.741 0
G14  23022054.143 0
G19  24426222.724 0
G25  20809118.770 0
G29  22414708.446 0
G32  22515732.893 0
> 2017 11 09 00 02 14.0000000  0  8      
G02  22926550.599 0
G06  22925618.816 0
G12  20178125.410 0
G14  23021796.783 0
G19  24426961.245 0
G25  20808816.360 0
G29  22414051.822 0
G32  22515764.567 0
> 2017 11 09 00 02 15.0000000  0  8      
G02  22926264.613 0
G06  22925659.166 0
G12  20178317.329 0
G14  23021540.574 0
G19  24427700.573 0
G25  20808514.390 0
G29  22413394.256 0
G32  22515796.943 0
> 2017 11 09 00 02 16.0000000  0  8      
G02  22925977.941 0
G06  22925699.805 0
G12  20178509.498 0
G14  23021285.573 0
G19  24428440.661 0
G25  20808212.909 0
G29  22412735.789 0
G32  22515830.088 0
> 2017 11 09 00 02 17.0000000  0  8      
G02  22925690.527 0
G06  22925740.650 0
G12  20178701.880 0
G14  23021031.805 0
G19  24429181.425 0
G25  20807911.936 0
G29  22412076.476 0
G32  22515864.044 0
> 2017 11 09 00 02 18.0000000  0  8      
G02  22925402.321 0
G06  22925781.636 0
G12  20178894.449 0
G14  23020779.303 0
G19  24429922.798 0
G25  20807611.498 0
G29  22411416.359 0
G32  22515898.861 0
> 2017 11 09 00 02 19.0000000  0  8      
G02  22925113.281 0
G06  22925822.708 0
G12  20179087.202 0
G14  23020528.117 0
G19  24430664.725 0
G25  20807311.641 0
G29  22410755.488 0
G32  22515934.599 0
> 2017 11 09 00 02 20.0000000  0  8      
G02  22924823.359 0
G06  22925863.792 0
G12  20179280.103 0
G14  23020278.264 0
G19  24431407.126 0
G25  20807012.381 0
G29  22410093.917 0
G32  22515971.297 0
> 2017 11 09 00 02 21.0000000  0  8      
G02  22924532.509 0
G06  22925904.818 0
G12  20179473.126 0
G14  23020029.771 0
G19  24432149.926 0
G25  20806713.742 0
G29  22409431.697 0
G32  22516008.998 0
> 2017 11 09 00 02 22.0000000  0  8      
G02  22924240.694 0
G06  22925945.724 0
G12  20179666.256 0
G14  23019782.668 0
G19  24432893.057 0
G25  20806415.759 0
G29  22408768.890 0
G32  22516047.752 0
> 2017 11 09 00 02 23.0000000  0  8      
G02  22923947.876 0
G06  22925986.445 0
G12  20179859.469 0
G14  23019536.975 0
G19  24433636.447 0
G25  20806118.451 0
G29  22408105.547 0
G32  22516087.597 0
> 2017 11 09 00 02 24.0000000  0  8      
G02  22923654.014 0
G06  22926026.919 0
G12  20180052.739 0
G14  23019292.713 0
G19  24434380.027 0
G25  20805821.840 0
G29  22407441.717 0
G32  22516128.572 0
> 2017 11 09 00 02 25.0000000  0  8      
G02  22923359.086 0
G06  22926067.081 0
G12  20180246.055 0
G14  23019049.902 0
G19  24435123.716 0
G25  20805525.960 0
G29  22406777.482 0
G32  22516170.723 0
> 2017 11 09 00 02 26.0000000  0  8      
G02  22923063.048 0
G06  22926106.862 0
G12  20180439.374 0
G14  23018808.542 0
G19  24435867.441 0
G25  20805230.810 0
G29  22406112.883 0
G32  22516214.068 0
> 2017 11 09 00 02 27.0000000  0  8      
G02  22922765.876 0
G06  22926146.210 0
G12  20180632.686 0
G14  23018568.655 0
G19  24436611.138 0
G25  20804936.420 0
G29  22405447.978 0
G32  22516258.648 0
> 2017 11 09 00 02 28.0000000  0  8      
G02  22922467.551 0
G06  22926185.063 0
G12  20180825.974 0
G14  23018330.248 0
G19  24437354.725 0
G25  20804642.814 0
G29  22404782.846 0
G32  22516304.499 0
> 2017 11 09 00 02 29.0000000  0  8      
G02  22922168.046 0
G06  22926223.353 0
G12  20181019.205 0
G14  23018093.318 0
G19  24438098.122 0
G25  20804349.998 0
G29  22404117.546 0
G32  22516351.641 0
> 2017 11 09 00 02 30.0000000  0  8      
G02  22921867.341 0
G06  22926261.028 0
G12  20181212.356 0
G14  23017857.865 0
G19  24438841.261 0
G25  20804057.983 0
G29  22403452.138 0
G32  22516400.096 0
> 2017 11 09 00 02 31.0000000  0  8      
G02  22921565.419 0
G06  22926298.036 0
G12  20181405.414 0
G14  23017623.896 0
G19  24439584.079 0
G25  20803766.788 0
G29  22402786.678 0
G32  22516449.892 0
> 2017 11 09 00 02 32.0000000  0  8      
G02  22921262.267 0
G06  22926334.323 0
G12  20181598.352 0
G14  23017391.399 0
G19  24440326.500 0
G25  20803476.419 0
G29  22402121.234 0
G32  22516501.043 0
> 2017 11 09 00 02 33.0000000  0  8      
G02  22920957.879 0
G06  22926369.835 0
G12  20181791.160 0
G14  23017160.372 0
G19  24441068.449 0
G25  20803186.895 0
G29  22401455.881 0
G32  22516553.575 0
> 2017 11 09 00 02 34.0000000  0  8      
G02  22920652.240 0
G06  22926404.522 0
G12  20181983.806 0
G14  23016930.798 0
G19  24441809.862 0
G25  20802898.210 0
G29  22400790.668 0
G32  22516607.492 0
> 2017 11 09 00 02 35.0000000  0  8      
G02  22920345.345 0
G06  22926438.334 0
G12  20182176.267 0
G14  23016702.659 0
G19  24442550.669 0
G25  20802610.368 0
G29  22400125.659 0
G32  22516662.803 0
> 2017 11 09 00 02 36.0000000  0  8      
G02  22920037.198 0
G06  22926471.227 0
G12  20182368.534 0
G14  23016475.946 0
G19  24443290.800 0
G25  20802323.383 0
G29  22399460.930 0
G32  22516719.524 0
> 2017 11 09 00 02 37.0000000  0  8      
G02  22919727.798 0
G06  22926503.159 0
G12  20182560.585 0
G14  23016250.634 0
G19  24444030.195 0
G25  20802037.251 0
G29  22398796.535 0
G32  22516777.656 0
> 2017 11 09 00 02 38.0000000  0  8      
G02  22919417.148 0
G06  22926534.087 0
G12  20182752.400 0
G14  23016026.700 0
G19  24444768.786 0
G25  20801751.970 0
G29  22398132.538 0
G32  22516837.200 0
> 2017 11 09 00 02 39.0000000  0  8      
G02  22919105.257 0
G06  22926563.973 0
G12  20182943.962 0
G14  23015804.115 0
G19  24445506.512 0
G25  20801467.540 0
G29  22397469.003 0
G32  22516898.156 0
> 2017 11 09 00 02 40.0000000  0  8      
G02  22918792.137 0
G06  22926592.792 0
G12  20183135.267 0
G14  23015582.865 0
G19  24446243.329 0
G25  20801183.965 0
G29  22396805.980 0
G32  22516960.527 0
> 2017 11 09 00 02 41.0000000  0  8      
G02  22918477.797 0
G06  22926620.492 0
G12  20183326.279 0
G14  23015362.897 0
G19  24446979.153 0
G25  20800901.225 0
G29  22396143.545 0
G32  22517024.295 0
> 2017 11 09 00 02 42.0000000  0  8      
G02  22918162.256 0
G06  22926647.061 0
G12  20183516.999 0
G14  23015144.196 0
G19  24447713.956 0
G25  20800619.324 0
G29  22395481.737 0
G32  22517089.460 0
> 2017 11 09 00 02 43.0000000  0  8      
G02  22917845.532 0
G06  22926672.459 0
G12  20183707.403 0
G14  23014926.710 0
G19  24448447.666 0
G25  20800338.246 0
G29  22394820.628 0
G32  22517156.003 0
> 2017 11 09 00 02 44.0000000  0  8      
G02  22917527.648 0
G06  22926696.669 0
G12  20183897.484 0
G14  23014710.408 0
G19  24449180.242 0
G25  20800057.983 0
G29  22394160.268 0
G32  22517223.913 0
> 2017 11 09 00 02 45.0000000  0  8      
G02  22917208.628 0
G06  22926719.667 0
G12  20184087.225 0
G14  23014495.245 0
G19  24449911.638 0
G25  20799778.521 0
G29  22393500.706 0
G32  22517293.168 0
> 2017 11 09 00 02 46.0000000  0  8      
G02  22916888.500 0
G06  22926741.434 0
G12  20184276.617 0
G14  23014281.179 0
G19  24450641.803 0
G25  20799499.848 0
G29  22392842.002 0
G32  22517363.752 0
> 2017 11 09 00 02 47.0000000  0  8      
G02  22916567.294 0
G06  22926761.953 0
G12  20184465.649 0
G14  23014068.160 0
G19  24451370.698 0
G25  20799221.945 0
G29  22392184.205 0
G32  22517435.638 0
> 2017 11 09 00 02 48.0000000  0  8      
G02  22916245.047 0
G06  22926781.224 0
G12  20184654.324 0
G14  23013856.152 0
G19  24452098.294 0
G25  20798944.808 0
G29  22391527.360 0
G32  22517508.809 0
> 2017 11 09 00 02 49.0000000  0  8      
G02  22915921.789 0
G06  22926799.223 0
G12  20184842.615 0
G14  23013645.089 0
G19  24452824.540 0
G25  20798668.402 0
G29  22390871.518 0
G32  22517583.225 0
> 2017 11 09 00 02 50.0000000  0  8      
G02  22915597.560 0
G06  22926815.947 0
G12  20185030.521 0
G14  23013434.924 0
G19  24453549.408 0
G25  20798392.711 0
G29  22390216.723 0
G32  22517658.859 0
> 2017 11 09 00 02 51.0000000  0  8      
G02  22915272.401 0
G06  22926831.398 0
G12  20185218.039 0
G14  23013225.604 0
G19  24454272.873 0
G25  20798117.715 0
G29  22389563.011 0
G32  22517735.676 0
> 2017 11 09 00 02 52.0000000  0  8      
G02  22914946.352 0
G06  22926845.580 0
G12  20185405.164 0
G14  23013017.077 0
G19  24454994.915 0
G25  20797843.390 0
G29  22388910.419 0
G32  22517813.643 0
> 2017 11 09 00 02 53.0000000  0  8      
G02  22914619.464 0
G06  22926858.488 0
G12  20185591.893 0
G14  23012809.284 0
G19  24455715.497 0
G25  20797569.717 0
G29  22388259.000 0
G32  22517892.724 0
> 2017 11 09 00 02 54.0000000  0  8      
G02  22914291.773 0
G06  22926870.128 0
G12  20185778.209 0
G14  23012602.156 0
G19  24456434.606 0
G25  20797296.653 0
G29  22387608.770 0
G32  22517972.867 0
> 2017 11 09 00 02 55.0000000  0  8      
G02  22913963.339 0
G06  22926880.521 0
G12  20185964.133 0
G14  23012395.651 0
G19  24457152.232 0
G25  20797024.192 0
G29  22386959.772 0
G32  22518054.043 0
> 2017 11 09 00 02 56.0000000  0  8      
G02  22913634.208 0
G06  22926889.666 0
G12  20186149.646 0
G14  23012189.694 0
G19  24457868.348 0
G25  20796752.294 0
G29  22386312.039 0
G32  22518136.200 0
> 2017 11 09 00 02 57.0000000  0  8      
G02  22913304.432 0
G06  22926897.592 0
G12  20186334.759 0
G14  23011984.233 0
G19  24458582.963 0
G25  20796480.933 0
G29  22385665.584 0
G32  22518219.295 0
> 2017 11 09 00 02 58.0000000  0  8      
G02  22912974.070 0
G06  22926904.308 0
G12  20186519.470 0
G14  23011779.197 0
G19  24459296.055 0
G25  20796210.079 0
G29  22385020.449 0
G32  22518303.277 0
> 2017 11 09 00 02 59.0000000  0  8      
G02  22912643.169 0
G06  22926909.841 0
G12  20186703.777 0
G14  23011574.525 0
G19  24460007.633 0
G25  20795939.693 0
G29  22384376.636 0
G32  22518388.094 0
> 2017 11 09 00 03  0.0000000  0  8      
G02  22912311.795 0
G06  22926914.217 0
G12  20186887.691 0
G14  23011370.155 0
G19  24460717.696 0
G25  20795669.753 0
G29  22383734.175 0
G32  22518473.699 0
> 2017 11 09 00 03  1.0000000  0  8      
G02  22911980.001 0
G06  22926917.464 0
G12  20187071.216 0
G14  23011166.025 0
G19  24461426.249 0
G25  20795400.224 0
G29  22383093.079 0
G32  22518560.038 0
> 2017 11 09 00 03  2.0000000  0  8      
G02  22911647.847 0
G06  22926919.607 0
G12  20187254.349 0
G14  23010962.061 0
G19  24462133.297 0
G25  20795131.063 0
G29  22382453.357 0
G32  22518647.051 0
> 2017 11 09 00 03  3.0000000  0  8      
G02  22911315.400 0
G06  22926920.689 0
G12  20187437.115 0
G14  23010758.212 0
G19  24462838.857 0
G25  20794862.254 0
G29  22381815.028 0
G32  22518734.695 0
> 2017 11 09 00 03  4.0000000  0  8      
G02  22910982.712 0
G06  22926920.740 0
G12  20187619.502 0
G14  23010554.401 0
G19  24463542.943 0
G25  20794593.742 0
G29  22381178.083 0
G32  22518822.898 0
> 2017 11 09 00 03  5.0000000  0  8      
G02  22910649.851 0
G06  22926919.798 0
G12  20187801.531 0
G14  23010350.568 0
G19  24464245.570 0
G25  20794325.503 0
G29  22380542.541 0
G32  22518911.612 0
> 2017 11 09 00 03  6.0000000  0  8      
G02  22910316.875 0
G06  22926917.901 0
G12  20187983.198 0
G14  23010146.640 0
G19  24464946.759 0
G25  20794057.488 0
G29  22379908.392 0
G32  22519000.767 0
> 2017 11 09 00 03  7.0000000  0  8      
G02  22909983.855 0
G06  22926915.103 0
G12  20188164.535 0
G14  23009942.570 0
G19  24465646.541 0
G25  20793789.681 0
G29  22379275.643 0
G32  22519090.321 0
> 2017 11 09 00 03  8.0000000  0  8      
G02  22909650.850 0
G06  22926911.451 0
G12  20188345.546 0
G14  23009738.289 0
G19  24466344.954 0
G25  20793522.033 0
G29  22378644.271 0
G32  22519180.203 0
> 2017 11 09 00 03  9.0000000  0  8      
G02  22909317.922 0
G06  22926906.981 0
G12  20188526.236 0
G14  23009533.726 0
G19  24467042.008 0
G25  20793254.508 0
G29  22378014.288 0
G32  22519270.353 0
> 2017 11 09 00 03 10.0000000  0  8      
G02  22908985.138 0
G06  22926901.753 0
G12  20188706.628 0
G14  23009328.828 0
G19  24467737.755 0
G25  20792987.070 0
G29  22377385.669 0
G32  22519360.712 0
> 2017 11 09 00 03 11.0000000  0  8      
G02  22908652.555 0
G06  22926895.814 0
G12  20188886.723 0
G14  23009123.525 0
G19  24468432.230 0
G25  20792719.671 0
G29  22376758.392 0
G32  22519451.211 0
> 2017 11 09 00 03 12.0000000  0  8      
G02  22908320.245 0
G06  22926889.228 0
G12  20189066.559 0
G14  23008917.774 0
G19  24469125.476 0
G25  20792452.298 0
G29  22376132.455 0
G32  22519541.805 0
> 2017 11 09 00 03 13.0000000  0  8      
G02  22907988.266 0
G06  22926882.037 0
G12  20189246.132 0
G14  23008711.498 0
G19  24469817.525 0
G25  20792184.892 0
G29  22375507.836 0
G32  22519632.418 0
> 2017 11 09 00 03 14.0000000  0  8      
G02  22907656.683 0
G06  22926874.305 0
G12  20189425.468 0
G14  23008504.650 0
G19  24470508.430 0
G25  20791917.429 0
G29  22374884.511 0
G32  22519722.998 0
> 2017 11 09 00 03 15.0000000  0  8      
G02  22907325.555 0
G06  22926866.102 0
G12  20189604.590 0
G14  23008297.181 0
G19  24471198.257 0
G25  20791649.871 0
G29  22374262.437 0
G32  22519813.484 0
> 2017 11 09 00 03 16.0000000  0  8      
G02  22906994.946 0
G06  22926857.471 0
G12  20189783.508 0
G14  23008089.025 0
G19  24471887.031 0
G25  20791382.180 0
G29  22373641.613 0
G32  22519903.814 0
> 2017 11 09 00 03 17.0000000  0  8      
G02  22906664.911 0
G06  22926848.482 0
G12  20189962.237 0
G14  23007880.133 0
G19  24472574.822 0
G25  20791114.315 0
G29  22373021.985 0
G32  22519993.924 0
> 2017 11 09 00 03 18.0000000  0  8      
G02  22906335.511 0
G06  22926839.204 0
G12  20190140.811 0
G14  23007670.464 0
G19  24473261.695 0
G25  20790846.251 0
G29  22372403.519 0
G32  22520083.763 0
> 2017 11 09 00 03 19.0000000  0  8      
G02  22906006.805 0
G06  22926829.691 0
G12  20190319.239 0
G14  23007459.960 0
G19  24473947.689 0
G25  20790577.949 0
G29  22371786.194 0
G32  22520173.271 0
> 2017 11 09 00 03 20.0000000  0  8      
G02  22905678.850 0
G06  22926820.011 0
G12  20190497.550 0
G14  23007248.581 0
G19  24474632.874 0
G25  20790309.380 0
G29  22371169.967 0
G32  22520262.393 0
> 2017 11 09 00 03 21.0000000  0  8      
G02  22905351.695 0
G06  22926810.230 0
G12  20190675.756 0
G14  23007036.281 0
G19  24475317.316 0
G25  20790040.503 0
G29  22370554.784 0
G32  22520351.069 0
> 2017 11 09 00 03 22.0000000  0  8      
G02  22905025.398 0
G06  22926800.411 0
G12  20190853.882 0
G14  23006823.016 0
G19  24476001.072 0
G25  20789771.289 0
G29  22369940.615 0
G32  22520439.246 0
> 2017 11 09 00 03 23.0000000  0  8      
G02  22904700.008 0
G06  22926790.626 0
G12  20191031.956 0
G14  23006608.756 0
G19  24476684.218 0
G25  20789501.713 0
G29  22369327.405 0
G32  22520526.875 0
> 2017 11 09 00 03 24.0000000  0  8      
G02  22904375.576 0
G06  22926780.945 0
G12  20191210.000 0
G14  23006393.464 0
G19  24477366.826 0
G25  20789231.743 0
G29  22368715.102 0
G32  22520613.904 0
> 2017 11 09 00 03 25.0000000  0  8      
G02  22904052.151 0
G06  22926771.423 0
G12  20191388.034 0
G14  23006177.100 0
G19  24478048.947 0
G25  20788961.352 0
G29  22368103.675 0
G32  22520700.285 0
> 2017 11 09 00 03 26.0000000  0  8      
G02  22903729.771 0
G06  22926762.128 0
G12  20191566.069 0
G14  23005959.630 0
G19  24478730.661 0
G25  20788690.498 0
G29  22367493.054 0
G32  22520785.959 0
> 2017 11 09 00 03 27.0000000  0  8      
G02  22903408.491 0
G06  22926753.132 0
G12  20191744.151 0
G14  23005741.037 0
G19  24479412.035 0
G25  20788419.178 0
G29  22366883.204 0
G32  22520870.898 0
> 2017 11 09 00 03 28.0000000  0  8      
G02  22903088.342 0
G06  22926744.505 0
G12  20191922.293 0
G14  23005521.295 0
G19  24480093.158 0
G25  20788147.353 0
G29  22366274.046 0
G32  22520955.047 0
> 2017 11 09 00 03 29.0000000  0  8      
G02  22902769.364 0
G06  22926736.300 0
G12  20192100.508 0
G14  23005300.370 0
G19  24480774.081 0
G25  20787874.995 0
G29  22365665.540 0
G32  22521038.361 0
> 2017 11 09 00 03 30.0000000  0  8      
G02  22902451.596 0
G06  22926728.591 0
G12  20192278.835 0
G14  23005078.254 0
G19  24481454.891 0
G25  20787602.093 0
G29  22365057.623 0
G32  22521120.809 0
> 2017 11 09 00 03 31.0000000  0  8      
G02  22902135.073 0
G06  22926721.434 0
G12  20192457.288 0
G14  23004854.923 0
G19  24482135.649 0
G25  20787328.621 0
G29  22364450.247 0
G32  22521202.350 0
> 2017 11 09 00 03 32.0000000  0  8      
G02  22901819.821 0
G06  22926714.903 0
G12  20192635.897 0
G14  23004630.371 0
G19  24482816.449 0
G25  20787054.561 0
G29  22363843.331 0
G32  22521282.948 0
> 2017 11 09 00 03 33.0000000  0  8      
G02  22901505.873 0
G06  22926709.048 0
G12  20192814.678 0
G14  23004404.579 0
G19  24483497.342 0
G25  20786779.893 0
G29  22363236.837 0
G32  22521362.571 0
> 2017 11 09 00 03 34.0000000  0  8      
G02  22901193.251 0
G06  22926703.938 0
G12  20192993.658 0
G14  23004177.546 0
G19  24484178.419 0
G25  20786504.601 0
G29  22362630.685 0
G32  22521441.188 0
> 2017 11 09 00 03 35.0000000  0  8      
G02  22900881.978 0
G06  22926699.626 0
G12  20193172.853 0
G14  23003949.261 0
G19  24484859.746 0
G25  20786228.665 0
G29  22362024.817 0
G32  22521518.768 0
> 2017 11 09 00 03 36.0000000  0  8      
G02  22900572.076 0
G06  22926696.175 0
G12  20193352.295 0
G14  23003719.731 0
G19  24485541.397 0
G25  20785952.083 0
G29  22361419.176 0
G32  22521595.293 0
> 2017 11 09 00 03 37.0000000  0  8      
G02  22900263.564 0
G06  22926693.638 0
G12  20193532.007 0
G14  23003488.955 0
G19  24486223.442 0
G25  20785674.843 0
G29  22360813.703 0
G32  22521670.742 0
> 2017 11 09 00 03 38.0000000  0  8      
G02  22899956.452 0
G06  22926692.070 0
G12  20193712.000 0
G14  23003256.935 0
G19  24486905.957 0
G25  20785396.926 0
G29  22360208.322 0
G32  22521745.087 0
> 2017 11 09 00 03 39.0000000  0  8      
G02  22899650.748 0
G06  22926691.521 0
G12  20193892.293 0
G14  23003023.675 0
G19  24487589.010 0
G25  20785118.320 0
G29  22359602.967 0
G32  22521818.308 0
> 2017 11 09 00 03 40.0000000  0  8      
G02  22899346.467 0
G06  22926692.041 0
G12  20194072.916 0
G14  23002789.192 0
G19  24488272.666 0
G25  20784839.031 0
G29  22358997.593 0
G32  22521890.401 0
> 2017 11 09 00 03 41.0000000  0  8      
G02  22899043.616 0
G06  22926693.681 0
G12  20194253.892 0
G14  23002553.501 0
G19  24488956.995 0
G25  20784559.057 0
G29  22358392.132 0
G32  22521961.355 0
> 2017 11 09 00 03 42.0000000  0  8      
G02  22898742.189 0
G06  22926696.493 0
G12  20194435.234 0
G14  23002316.620 0
G19  24489642.078 0
G25  20784278.384 0
G29  22357786.501 0
G32  22522031.155 0
> 2017 11 09 00 03 43.0000000  0  8      
G02  22898442.193 0
G06  22926700.510 0
G12  20194616.966 0
G14  23002078.567 0
G19  24490327.959 0
G25  20783997.022 0
G29  22357180.665 0
G32  22522099.803 0
> 2017 11 09 00 03 44.0000000  0  8      
G02  22898143.615 0
G06  22926705.773 0
G12  20194799.089 0
G14  23001839.356 0
G19  24491014.709 0
G25  20783714.953 0
G29  22356574.543 0
G32  22522167.283 0
> 2017 11 09 00 03 45.0000000  0  8      
G02  22897846.454 0
G06  22926712.325 0
G12  20194981.634 0
G14  23001599.021 0
G19  24491702.392 0
G25  20783432.192 0
G29  22355968.080 0
G32  22522233.605 0
> 2017 11 09 00 03 46.0000000  0  8      
G02  22897550.702 0
G06  22926720.203 0
G12  20195164.622 0
G14  23001357.593 0
G19  24492391.063 0
G25  20783148.750 0
G29  22355361.223 0
G32  22522298.775 0
> 2017 11 09 00 03 47.0000000  0  8      
G02  22897256.344 0
G06  22926729.442 0
G12  20195348.065 0
G14  23001115.102 0
G19  24493080.788 0
G25  20782864.625 0
G29  22354753.902 0
G32  22522362.795 0
> 2017 11 09 00 03 48.0000000  0  8      
G02  22896963.362 0
G06  22926740.066 0
G12  20195531.971 0
G14  23000871.576 0
G19  24493771.612 0
G25  20782579.822 0
G29  22354146.066 0
G32  22522425.671 0
> 2017 11 09 00 03 49.0000000  0  8      
G02  22896671.741 0
G06  22926752.103 0
G12  20195716.358 0
G14  23000627.053 0
G19  24494463.584 0
G25  20782294.354 0
G29  22353537.663 0
G32  22522487.418 0
> 2017 11 09 00 03 50.0000000  0  8      
G02  22896381.456 0
G06  22926765.586 0
G12  20195901.242 0
G14  23000381.578 0
G19  24495156.769 0
G25  20782008.231 0
G29  22352928.625 0
G32  22522548.050 0
> 2017 11 09 00 03 51.0000000  0  8      
G02  22896092.486 0
G06  22926780.528 0
G12  20196086.633 0
G14  23000135.187 0
G19  24495851.201 0
G25  20781721.469 0
G29  22352318.911 0
G32  22522607.587 0
> 2017 11 09 00 03 52.0000000  0  8      
G02  22895804.802 0
G06  22926796.952 0
G12  20196272.541 0
G14  22999887.925 0
G19  24496546.930 0
G25  20781434.079 0
G29  22351708.463 0
G32  22522666.045 0
> 2017 11 09 00 03 53.0000000  0  8      
G02  22895518.372 0
G06  22926814.869 0
G12  20196458.971 0
G14  22999639.831 0
G19  24497243.991 0
G25  20781146.071 0
G29  22351097.235 0
G32  22522723.444 0
> 2017 11 09 00 03 54.0000000  0  8      
G02  22895233.168 0
G06  22926834.297 0
G12  20196645.942 0
G14  22999390.964 0
G19  24497942.430 0
G25  20780857.472 0
G29  22350485.177 0
G32  22522779.817 0
> 2017 11 09 00 03 55.0000000  0  8      
G02  22894949.152 0
G06  22926855.250 0
G12  20196833.460 0
G14  22999141.373 0
G19  24498642.290 0
G25  20780568.298 0
G29  22349872.232 0
G32  22522835.189 0
> 2017 11 09 00 03 56.0000000  0  8      
G02  22894666.287 0
G06  22926877.723 0
G12  20197021.526 0
G14  22998891.102 0
G19  24499343.585 0
G25  20780278.568 0
G29  22349258.376 0
G32  22522889.590 0
> 2017 11 09 00 03 57.0000000  0  8      
G02  22894384.534 0
G06  22926901.722 0
G12  20197210.149 0
G14  22998640.206 0
G19  24500046.349 0
G25  20779988.304 0
G29  22348643.563 0
G32  22522943.053 0
> 2017 11 09 00 03 58.0000000  0  8      
G02  22894103.851 0
G06  22926927.251 0
G12  20197399.336 0
G14  22998388.746 0
G19  24500750.615 0
G25  20779697.531 0
G29  22348027.747 0
G32  22522995.615 0
> 2017 11 09 00 03 59.0000000  0  8      
G02  22893824.190 0
G06  22926954.308 0
G12  20197589.084 0
G14  22998136.774 0
G19  24501456.408 0
G25  20779406.267 0
G29  22347410.883 0
G32  22523047.309 0
> 2017 11 09 00 04  0.0000000  0  8      
G02  22893545.510 0
G06  22926982.881 0
G12  20197779.403 0
G14  22997884.350 0
G19  24502163.735 0
G25  20779114.547 0
G29  22346792.959 0
G32  22523098.181 0
> 2017 11 09 00 04  1.0000000  0  8      
G02  22893267.761 0
G06  22927012.968 0
G12  20197970.298 0
G14  22997631.539 0
G19  24502872.623 0
G25  20778822.400 0
G29  22346173.930 0
G32  22523148.276 0
> 2017 11 09 00 04  2.0000000  0  8      
G02  22892990.888 0
G06  22927044.547 0
G12  20198161.751 0
G14  22997378.387 0
G19  24503583.076 0
G25  20778529.836 0
G29  22345553.765 0
G32  22523197.624 0
> 2017 11 09 00 04  3.0000000  0  8      
G02  22892714.849 0
G06  22927077.613 0
G12  20198353.786 0
G14  22997124.973 0
G19  24504295.108 0
G25  20778236.910 0
G29  22344932.449 0
G32  22523246.291 0
> 2017 11 09 00 04  4.0000000  0  8      
G02  22892439.578 0
G06  22927112.141 0
G12  20198546.379 0
G14  22996871.347 0
G19  24505008.726 0
G25  20777943.628 0
G29  22344309.942 0
G32  22523294.306 0
> 2017 11 09 00 04  5.0000000  0  8      
G02  22892165.029 0
G06  22927148.108 0
G12  20198739.541 0
G14  22996617.578 0
G19  24505723.922 0
G25  20777650.039 0
G29  22343686.242 0
G32  22523341.733 0
> 2017 11 09 00 04  6.0000000  0  8      
G02  22891891.140 0
G06  22927185.499 0
G12  20198933.263 0
G14  22996363.731 0
G19  24506440.714 0
G25  20777356.165 0
G29  22343061.309 0
G32  22523388.615 0
> 2017 11 09 00 04  7.0000000  0  8      
G02  22891617.854 0
G06  22927224.269 0
G12  20199127.532 0
G14  22996109.859 0
G19  24507159.070 0
G25  20777062.037 0
G29  22342435.152 0
G32  22523435.005 0
> 2017 11 09 00 04  8.0000000  0  8      
G02  22891345.113 0
G06  22927264.403 0
G12  20199322.352 0
G14  22995856.039 0
G19  24507879.003 0
G25  20776767.695 0
G29  22341807.740 0
G32  22523480.960 0
> 2017 11 09 00 04  9.0000000  0  8      
G02  22891072.861 0
G06  22927305.867 0
G12  20199517.726 0
G14  22995602.341 0
G19  24508600.492 0
G25  20776473.186 0
G29  22341179.083 0
G32  22523526.546 0
> 2017 11 09 00 04 10.0000000  0  8      
G02  22890801.026 0
G06  22927348.614 0
G12  20199713.613 0
G14  22995348.808 0
G19  24509323.519 0
G25  20776178.511 0
G29  22340549.154 0
G32  22523571.796 0
> 2017 11 09 00 04 11.0000000  0  8      
G02  22890529.556 0
G06  22927392.618 0
G12  20199910.034 0
G14  22995095.524 0
G19  24510048.074 0
G25  20775883.735 0
G29  22339917.962 0
G32  22523616.788 0
> 2017 11 09 00 04 12.0000000  0  8      
G02  22890258.383 0
G06  22927437.835 0
G12  20200106.963 0
G14  22994842.546 0
G19  24510774.132 0
G25  20775588.879 0
G29  22339285.498 0
G32  22523661.569 0
> 2017 11 09 00 04 13.0000000  0  8      
G02  22889987.448 0
G06  22927484.211 0
G12  20200304.389 0
G14  22994589.932 0
G19  24511501.652 0
G25  20775293.983 0
G29  22338651.786 0
G32  22523706.204 0
> 2017 11 09 00 04 14.0000000  0  8      
G02  22889716.683 0
G06  22927531.712 0
G12  20200502.301 0
G14  22994337.753 0
G19  24512230.626 0
G25  20774999.080 0
G29  22338016.805 0
G32  22523750.749 0
> 2017 11 09 00 04 15.0000000  0  8      
G02  22889446.030 0
G06  22927580.291 0
G12  20200700.695 0
G14  22994086.077 0
G19  24512961.017 0
G25  20774704.217 0
G29  22337380.579 0
G32  22523795.272 0
> 2017 11 09 00 04 16.0000000  0  8      
G02  22889175.426 0
G06  22927629.891 0
G12  20200899.549 0
G14  22993834.957 0
G19  24513692.778 0
G25  20774409.427 0
G29  22336743.128 0
G32  22523839.831 0
> 2017 11 09 00 04 17.0000000  0  8      
G02  22888904.801 0
G06  22927680.461 0
G12  20201098.840 0
G14  22993584.451 0
G19  24514425.882 0
G25  20774114.733 0
G29  22336104.448 0
G32  22523884.479 0
> 2017 11 09 00 04 18.0000000  0  8      
G02  22888634.096 0
G06  22927731.947 0
G12  20201298.559 0
G14  22993334.622 0
G19  24515160.280 0
G25  20773820.183 0
G29  22335464.568 0
G32  22523929.284 0
> 2017 11 09 00 04 19.0000000  0  8      
G02  22888363.248 0
G06  22927784.297 0
G12  20201498.688 0
G14  22993085.530 0
G19  24515895.937 0
G25  20773525.810 0
G29  22334823.503 0
G32  22523974.304 0
> 2017 11 09 00 04 20.0000000  0  8      
G02  22888092.196 0
G06  22927837.450 0
G12  20201699.212 0
G14  22992837.231 0
G19  24516632.797 0
G25  20773231.654 0
G29  22334181.284 0
G32  22524019.605 0
> 2017 11 09 00 04 21.0000000  0  8      
G02  22887820.874 0
G06  22927891.347 0
G12  20201900.105 0
G14  22992589.779 0
G19  24517370.817 0
G25  20772937.742 0
G29  22333537.926 0
G32  22524065.239 0
> 2017 11 09 00 04 22.0000000  0  8      
G02  22887549.229 0
G06  22927945.934 0
G12  20202101.364 0
G14  22992343.236 0
G19  24518109.946 0
G25  20772644.125 0
G29  22332893.469 0
G32  22524111.279 0
> 2017 11 09 00 04 23.0000000  0  8      
G02  22887277.199 0
G06  22928001.140 0
G12  20202302.955 0
G14  22992097.643 0
G19  24518850.118 0
G25  20772350.826 0
G29  22332247.947 0
G32  22524157.776 0
> 2017 11 09 00 04 24.0000000  0  8      
G02  22887004.715 0
G06  22928056.902 0
G12  20202504.846 0
G14  22991853.045 0
G19  24519591.285 0
G25  20772057.866 0
G29  22331601.375 0
G32  22524204.777 0
> 2017 11 09 00 04 25.0000000  0  8      
G02  22886731.736 0
G06  22928113.170 0
G12  20202707.050 0
G14  22991609.512 0
G19  24520333.390 0
G25  20771765.313 0
G29  22330953.813 0
G32  22524252.366 0
> 2017 11 09 00 04 26.0000000  0  8      
G02  22886458.193 0
G06  22928169.863 0
G12  20202909.514 0
G14  22991367.070 0
G19  24521076.364 0
G25  20771473.168 0
G29  22330305.285 0
G32  22524300.579 0
> 2017 11 09 00 04 27.0000000  0  8      
G02  22886184.040 0
G06  22928226.923 0
G12  20203112.232 0
G14  22991125.770 0
G19  24521820.146 0
G25  20771181.480 0
G29  22329655.843 0
G32  22524349.481 0
> 2017 11 09 00 04 28.0000000  0  8      
G02  22885909.216 0
G06  22928284.282 0
G12  20203315.172 0
G14  22990885.650 0
G19  24522564.674 0
G25  20770890.270 0
G29  22329005.519 0
G32  22524399.120 0
> 2017 11 09 00 04 29.0000000  0  8      
G02  22885633.677 0
G06  22928341.879 0
G12  20203518.321 0
G14  22990646.755 0
G19  24523309.882 0
G25  20770599.577 0
G29  22328354.366 0
G32  22524449.555 0
> 2017 11 09 00 04 30.0000000  0  8      
G02  22885357.369 0
G06  22928399.647 0
G12  20203721.653 0
G14  22990409.120 0
G19  24524055.706 0
G25  20770309.426 0
G29  22327702.426 0
G32  22524500.835 0
> 2017 11 09 00 04 31.0000000  0  8      
G02  22885080.247 0
G06  22928457.513 0
G12  20203925.142 0
G14  22990172.775 0
G19  24524802.063 0
G25  20770019.846 0
G29  22327049.760 0
G32  22524553.012 0
> 2017 11 09 00 04 32.0000000  0  8      
G02  22884802.264 0
G06  22928515.413 0
G12  20204128.763 0
G14  22989937.752 0
G19  24525548.892 0
G25  20769730.862 0
G29  22326396.410 0
G32  22524606.130 0
> 2017 11 09 00 04 33.0000000  0  8      
G02  22884523.373 0
G06  22928573.280 0
G12  20204332.490 0
G14  22989704.078 0
G19  24526296.120 0
G25  20769442.494 0
G29  22325742.428 0
G32  22524660.234 0
> 2017 11 09 00 04 34.0000000  0  8      
G02  22884243.542 0
G06  22928631.058 0
G12  20204536.314 0
G14  22989471.789 0
G19  24527043.682 0
G25  20769154.783 0
G29  22325087.872 0
G32  22524715.378 0
> 2017 11 09 00 04 35.0000000  0  8      
G02  22883962.727 0
G06  22928688.668 0
G12  20204740.198 0
G14  22989240.897 0
G19  24527791.490 0
G25  20768867.741 0
G29  22324432.806 0
G32  22524771.598 0
> 2017 11 09 00 04 36.0000000  0  8      
G02  22883680.892 0
G06  22928746.053 0
G12  20204944.124 0
G14  22989011.427 0
G19  24528539.481 0
G25  20768581.393 0
G29  22323777.279 0
G32  22524828.935 0
> 2017 11 09 00 04 37.0000000  0  8      
G02  22883397.999 0
G06  22928803.146 0
G12  20205148.058 0
G14  22988783.392 0
G19  24529287.582 0
G25  20768295.750 0
G29  22323121.340 0
G32  22524887.422 0
> 2017 11 09 00 04 38.0000000  0  8      
G02  22883114.021 0
G06  22928859.878 0
G12  20205351.982 0
G14  22988556.804 0
G19  24530035.706 0
G25  20768010.837 0
G29  22322465.070 0
G32  22524947.099 0
> 2017 11 09 00 04 39.0000000  0  8      
G02  22882828.928 0
G06  22928916.202 0
G12  20205555.876 0
G14  22988331.683 0
G19  24530783.800 0
G25  20767726.672 0
G29  22321808.507 0
G32  22525007.998 0
> 2017 11 09 00 04 40.0000000  0  8      
G02  22882542.698 0
G06  22928972.052 0
G12  20205759.723 0
G14  22988108.038 0
G19  24531531.780 0
G25  20767443.280 0
G29  22321151.728 0
G32  22525070.158 0
> 2017 11 09 00 04 41.0000000  0  8      
G02  22882255.303 0
G06  22929027.356 0
G12  20205963.481 0
G14  22987885.858 0
G19  24532279.562 0
G25  20767160.656 0
G29  22320494.795 0
G32  22525133.593 0
> 2017 11 09 00 04 42.0000000  0  8      
G02  22881966.727 0
G06  22929082.070 0
G12  20206167.146 0
G14  22987665.161 0
G19  24533027.083 0
G25  20766878.832 0
G29  22319837.771 0
G32  22525198.343 0
> 2017 11 09 00 04 43.0000000  0  8      
G02  22881676.947 0
G06  22929136.134 0
G12  20206370.684 0
G14  22987445.939 0
G19  24533774.274 0
G25  20766597.804 0
G29  22319180.706 0
G32  22525264.419 0
> 2017 11 09 00 04 44.0000000  0  8      
G02  22881385.955 0
G06  22929189.494 0
G12  20206574.081 0
G14  22987228.190 0
G19  24534521.059 0
G25  20766317.591 0
G29  22318523.676 0
G32  22525331.850 0
> 2017 11 09 00 04 45.0000000  0  8      
G02  22881093.732 0
G06  22929242.102 0
G12  20206777.312 0
G14  22987011.909 0
G19  24535267.378 0
G25  20766038.195 0
G29  22317866.726 0
G32  22525400.648 0
> 2017 11 09 00 04 46.0000000  0  8      
G02  22880800.275 0
G06  22929293.896 0
G12  20206980.354 0
G14  22986797.078 0
G19  24536013.142 0
G25  20765759.622 0
G29  22317209.943 0
G32  22525470.829 0
> 2017 11 09 00 04 47.0000000  0  8      
G02  22880505.578 0
G06  22929344.832 0
G12  20207183.188 0
G14  22986583.686 0
G19  24536758.290 0
G25  20765481.878 0
G29  22316553.381 0
G32  22525542.405 0
> 2017 11 09 00 04 48.0000000  0  8      
G02  22880209.635 0
G06  22929394.868 0
G12  20207385.796 0
G14  22986371.722 0
G19  24537502.764 0
G25  20765204.965 0
G29  22315897.094 0
G32  22525615.387 0
> 2017 11 09 00 04 49.0000000  0  8      
G02  22879912.451 0
G06  22929443.958 0
G12  20207588.163 0
G14  22986161.165 0
G19  24538246.490 0
G25  20764928.889 0
G29  22315241.155 0
G32  22525689.782 0
> 2017 11 09 00 04 50.0000000  0  8      
G02  22879614.024 0
G06  22929492.055 0
G12  20207790.258 0
G14  22985951.983 0
G19  24538989.405 0
G25  20764653.634 0
G29  22314585.620 0
G32  22525765.585 0
> 2017 11 09 00 04 51.0000000  0  8      
G02  22879314.365 0
G06  22929539.128 0
G12  20207992.079 0
G14  22985744.166 0
G19  24539731.454 0
G25  20764379.215 0
G29  22313930.549 0
G32  22525842.808 0
> 2017 11 09 00 04 52.0000000  0  8      
G02  22879013.482 0
G06  22929585.136 0
G12  20208193.602 0
