     3.01           OBSERVATION DATA    G (GPS)             RINEX VERSION / TYPE
GINA GNSS Simulator Robert Bosch Gmbh.  20180612 150055 UTC PGM / RUN BY / DATE
C1 modelled using GNSS SIM                                  COMMENT
https://github.com/PINAProject/PINA                         COMMENT
Header contents might be invalid in some cases.             COMMENT
---                                                         MARKER NAME
                                                            MARKER NUMBER
---                                                         MARKER TYPE
CC/ENG2             VMPS System Simulation                  OBSERVER / AGENCY
---                 ---                 1.0.0               REC # / TYPE / VERS
---                 No modelled antenna                     ANT # / TYPE
        0.0000        0.0000        0.0000                  APPROX POSITION XYZ
        0.0000        0.0000        0.0000                  ANTENNA: DELTA H/E/N
G    1 C1C                                                  SYS / # / OBS TYPES
1                                                           SIGNAL STRENGTH UNIT
     0.100                                                  INTERVAL
  2018     3    15    18    48   49.1000000     GPS         TIME OF FIRST OBS
  2018     3    15    18    51   19.1000000     GPS         TIME OF LAST OBS
     9                                                      # OF SATELLITES
                                                            END OF HEADER
> 2018 03 15 18 48 49.1000000  0  9      
G04  20419474.944 0
G05  23340326.789 0
G16  23482148.644 0
G20  22652531.013 0
G21  21427704.627 0
G25  22635805.807 0
G26  21477893.016 0
G29  20728807.242 0
G31  22431990.077 0
> 2018 03 15 18 48 49.2000000  0  9      
G04  20419453.058 0
G05  23340340.915 0
G16  23482085.433 0
G20  22652482.076 0
G21  21427674.060 0
G25  22635865.764 0
G26  21477852.121 0
G29  20728836.973 0
G31  22432033.781 0
> 2018 03 15 18 48 49.3000000  0  9      
G04  20419431.173 0
G05  23340355.042 0
G16  23482022.222 0
G20  22652433.139 0
G21  21427643.494 0
G25  22635925.721 0
G26  21477811.226 0
G29  20728866.705 0
G31  22432077.487 0
> 2018 03 15 18 48 49.4000000  0  9      
G04  20419409.289 0
G05  23340369.169 0
G16  23481959.012 0
G20  22652384.202 0
G21  21427612.929 0
G25  22635985.679 0
G26  21477770.333 0
G29  20728896.436 0
G31  22432121.194 0
> 2018 03 15 18 48 49.5000000  0  9      
G04  20419387.407 0
G05  23340383.297 0
G16  23481895.803 0
G20  22652335.266 0
G21  21427582.364 0
G25  22636045.636 0
G26  21477729.441 0
G29  20728926.168 0
G31  22432164.902 0
> 2018 03 15 18 48 49.6000000  0  9      
G04  20419365.526 0
G05  23340397.426 0
G16  23481832.595 0
G20  22652286.330 0
G21  21427551.801 0
G25  22636105.594 0
G26  21477688.550 0
G29  20728955.901 0
G31  22432208.611 0
> 2018 03 15 18 48 49.7000000  0  9      
G04  20419343.646 0
G05  23340411.557 0
G16  23481769.387 0
G20  22652237.395 0
G21  21427521.239 0
G25  22636165.552 0
G26  21477647.659 0
G29  20728985.633 0
G31  22432252.321 0
> 2018 03 15 18 48 49.8000000  0  9      
G04  20419321.768 0
G05  23340425.687 0
G16  23481706.180 0
G20  22652188.460 0
G21  21427490.677 0
G25  22636225.511 0
G26  21477606.770 0
G29  20729015.367 0
G31  22432296.033 0
> 2018 03 15 18 48 49.9000000  0  9      
G04  20419299.890 0
G05  23340439.819 0
G16  23481642.973 0
G20  22652139.526 0
G21  21427460.117 0
G25  22636285.470 0
G26  21477565.882 0
G29  20729045.100 0
G31  22432339.745 0
> 2018 03 15 18 48 50.0000000  0  9      
G04  20419278.014 0
G05  23340453.952 0
G16  23481579.767 0
G20  22652090.591 0
G21  21427429.557 0
G25  22636345.429 0
G26  21477524.995 0
G29  20729074.834 0
G31  22432383.459 0
> 2018 03 15 18 48 50.1000000  0  9      
G04  20419256.139 0
G05  23340468.085 0
G16  23481516.562 0
G20  22652041.658 0
G21  21427398.999 0
G25  22636405.388 0
G26  21477484.110 0
G29  20729104.568 0
G31  22432427.174 0
> 2018 03 15 18 48 50.2000000  0  9      
G04  20419234.265 0
G05  23340482.220 0
G16  23481453.358 0
G20  22651992.724 0
G21  21427368.441 0
G25  22636465.348 0
G26  21477443.225 0
G29  20729134.303 0
G31  22432470.891 0
> 2018 03 15 18 48 50.3000000  0  9      
G04  20419212.393 0
G05  23340496.355 0
G16  23481390.154 0
G20  22651943.791 0
G21  21427337.885 0
G25  22636525.308 0
G26  21477402.341 0
G29  20729164.038 0
G31  22432514.608 0
> 2018 03 15 18 48 50.4000000  0  9      
G04  20419190.521 0
G05  23340510.491 0
G16  23481326.951 0
G20  22651894.859 0
G21  21427307.329 0
G25  22636585.268 0
G26  21477361.459 0
G29  20729193.773 0
G31  22432558.327 0
> 2018 03 15 18 48 50.5000000  0  9      
G04  20419168.651 0
G05  23340524.629 0
G16  23481263.749 0
G20  22651845.926 0
G21  21427276.774 0
G25  22636645.229 0
G26  21477320.577 0
G29  20729223.509 0
G31  22432602.047 0
> 2018 03 15 18 48 50.6000000  0  9      
G04  20419146.782 0
G05  23340538.767 0
G16  23481200.548 0
G20  22651796.994 0
G21  21427246.220 0
G25  22636705.190 0
G26  21477279.697 0
G29  20729253.245 0
G31  22432645.768 0
> 2018 03 15 18 48 50.7000000  0  9      
G04  20419124.915 0
G05  23340552.905 0
G16  23481137.347 0
G20  22651748.063 0
G21  21427215.667 0
G25  22636765.151 0
G26  21477238.817 0
G29  20729282.982 0
G31  22432689.490 0
> 2018 03 15 18 48 50.8000000  0  9      
G04  20419103.048 0
G05  23340567.045 0
G16  23481074.147 0
G20  22651699.132 0
G21  21427185.115 0
G25  22636825.112 0
G26  21477197.939 0
G29  20729312.719 0
G31  22432733.213 0
> 2018 03 15 18 48 50.9000000  0  9      
G04  20419081.183 0
G05  23340581.186 0
G16  23481010.947 0
G20  22651650.201 0
G21  21427154.564 0
G25  22636885.074 0
G26  21477157.062 0
G29  20729342.456 0
G31  22432776.937 0
> 2018 03 15 18 48 51.0000000  0  9      
G04  20419059.319 0
G05  23340595.327 0
G16  23480947.748 0
G20  22651601.271 0
G21  21427124.014 0
G25  22636945.036 0
G26  21477116.186 0
G29  20729372.194 0
G31  22432820.663 0
> 2018 03 15 18 48 51.1000000  0  9      
G04  20419037.456 0
G05  23340609.470 0
G16  23480884.551 0
G20  22651552.340 0
G21  21427093.465 0
G25  22637004.998 0
G26  21477075.311 0
G29  20729401.932 0
G31  22432864.390 0
> 2018 03 15 18 48 51.2000000  0  9      
G04  20419015.595 0
G05  23340623.613 0
G16  23480821.353 0
G20  22651503.411 0
G21  21427062.917 0
G25  22637064.961 0
G26  21477034.437 0
G29  20729431.670 0
G31  22432908.118 0
> 2018 03 15 18 48 51.3000000  0  9      
G04  20418993.735 0
G05  23340637.757 0
G16  23480758.157 0
G20  22651454.482 0
G21  21427032.369 0
G25  22637124.924 0
G26  21476993.564 0
G29  20729461.409 0
G31  22432951.847 0
> 2018 03 15 18 48 51.4000000  0  9      
G04  20418971.876 0
G05  23340651.903 0
G16  23480694.961 0
G20  22651405.553 0
G21  21427001.823 0
G25  22637184.887 0
G26  21476952.692 0
G29  20729491.148 0
G31  22432995.577 0
> 2018 03 15 18 48 51.5000000  0  9      
G04  20418950.018 0
G05  23340666.049 0
G16  23480631.766 0
G20  22651356.624 0
G21  21426971.278 0
G25  22637244.850 0
G26  21476911.821 0
G29  20729520.888 0
G31  22433039.309 0
> 2018 03 15 18 48 51.6000000  0  9      
G04  20418928.161 0
G05  23340680.196 0
G16  23480568.571 0
G20  22651307.696 0
G21  21426940.733 0
G25  22637304.814 0
G26  21476870.952 0
G29  20729550.628 0
G31  22433083.042 0
> 2018 03 15 18 48 51.7000000  0  9      
G04  20418906.306 0
G05  23340694.343 0
G16  23480505.378 0
G20  22651258.768 0
G21  21426910.190 0
G25  22637364.778 0
G26  21476830.083 0
G29  20729580.368 0
G31  22433126.775 0
> 2018 03 15 18 48 51.8000000  0  9      
G04  20418884.452 0
G05  23340708.492 0
G16  23480442.185 0
G20  22651209.840 0
G21  21426879.647 0
G25  22637424.742 0
G26  21476789.216 0
G29  20729610.109 0
G31  22433170.510 0
> 2018 03 15 18 48 51.9000000  0  9      
G04  20418862.599 0
G05  23340722.642 0
G16  23480378.992 0
G20  22651160.913 0
G21  21426849.105 0
G25  22637484.707 0
G26  21476748.349 0
G29  20729639.850 0
G31  22433214.246 0
> 2018 03 15 18 48 52.0000000  0  9      
G04  20418840.747 0
G05  23340736.792 0
G16  23480315.801 0
G20  22651111.986 0
G21  21426818.564 0
G25  22637544.671 0
G26  21476707.484 0
G29  20729669.592 0
G31  22433257.984 0
> 2018 03 15 18 48 52.1000000  0  9      
G04  20418818.896 0
G05  23340750.944 0
G16  23480252.610 0
G20  22651063.060 0
G21  21426788.024 0
G25  22637604.636 0
G26  21476666.620 0
G29  20729699.334 0
G31  22433301.722 0
> 2018 03 15 18 48 52.2000000  0  9      
G04  20418797.047 0
G05  23340765.096 0
G16  23480189.420 0
G20  22651014.134 0
G21  21426757.485 0
G25  22637664.602 0
G26  21476625.757 0
G29  20729729.076 0
G31  22433345.462 0
> 2018 03 15 18 48 52.3000000  0  9      
G04  20418775.199 0
G05  23340779.249 0
G16  23480126.231 0
G20  22650965.208 0
G21  21426726.947 0
G25  22637724.567 0
G26  21476584.895 0
G29  20729758.819 0
G31  22433389.203 0
> 2018 03 15 18 48 52.4000000  0  9      
G04  20418753.352 0
G05  23340793.404 0
G16  23480063.042 0
G20  22650916.283 0
G21  21426696.410 0
G25  22637784.533 0
G26  21476544.034 0
G29  20729788.562 0
G31  22433432.944 0
> 2018 03 15 18 48 52.5000000  0  9      
G04  20418731.507 0
G05  23340807.559 0
G16  23479999.854 0
G20  22650867.358 0
G21  21426665.874 0
G25  22637844.499 0
G26  21476503.174 0
G29  20729818.306 0
G31  22433476.687 0
> 2018 03 15 18 48 52.6000000  0  9      
G04  20418709.662 0
G05  23340821.715 0
G16  23479936.667 0
G20  22650818.433 0
G21  21426635.338 0
G25  22637904.465 0
G26  21476462.315 0
G29  20729848.050 0
G31  22433520.432 0
> 2018 03 15 18 48 52.7000000  0  9      
G04  20418687.819 0
G05  23340835.872 0
G16  23479873.481 0
G20  22650769.509 0
G21  21426604.804 0
G25  22637964.432 0
G26  21476421.458 0
G29  20729877.794 0
G31  22433564.177 0
> 2018 03 15 18 48 52.8000000  0  9      
G04  20418665.977 0
G05  23340850.030 0
G16  23479810.295 0
G20  22650720.585 0
G21  21426574.270 0
G25  22638024.399 0
G26  21476380.601 0
G29  20729907.539 0
G31  22433607.923 0
> 2018 03 15 18 48 52.9000000  0  9      
G04  20418644.137 0
G05  23340864.188 0
G16  23479747.110 0
G20  22650671.662 0
G21  21426543.738 0
G25  22638084.366 0
G26  21476339.746 0
G29  20729937.284 0
G31  22433651.671 0
> 2018 03 15 18 48 53.0000000  0  9      
G04  20418622.297 0
G05  23340878.348 0
G16  23479683.926 0
G20  22650622.738 0
G21  21426513.206 0
G25  22638144.333 0
G26  21476298.891 0
G29  20729967.030 0
G31  22433695.420 0
> 2018 03 15 18 48 53.1000000  0  9      
G04  20418600.459 0
G05  23340892.509 0
G16  23479620.742 0
G20  22650573.815 0
G21  21426482.675 0
G25  22638204.301 0
G26  21476258.038 0
G29  20729996.775 0
G31  22433739.170 0
> 2018 03 15 18 48 53.2000000  0  9      
G04  20418578.622 0
G05  23340906.670 0
G16  23479557.560 0
G20  22650524.893 0
G21  21426452.145 0
G25  22638264.268 0
G26  21476217.186 0
G29  20730026.522 0
G31  22433782.921 0
> 2018 03 15 18 48 53.3000000  0  9      
G04  20418556.786 0
G05  23340920.833 0
G16  23479494.378 0
G20  22650475.971 0
G21  21426421.616 0
G25  22638324.237 0
G26  21476176.335 0
G29  20730056.269 0
G31  22433826.673 0
> 2018 03 15 18 48 53.4000000  0  9      
G04  20418534.952 0
G05  23340934.996 0
G16  23479431.196 0
G20  22650427.049 0
G21  21426391.088 0
G25  22638384.205 0
G26  21476135.485 0
G29  20730086.016 0
G31  22433870.426 0
> 2018 03 15 18 48 53.5000000  0  9      
G04  20418513.119 0
G05  23340949.161 0
G16  23479368.016 0
G20  22650378.127 0
G21  21426360.561 0
G25  22638444.173 0
G26  21476094.636 0
G29  20730115.763 0
G31  22433914.181 0
> 2018 03 15 18 48 53.6000000  0  9      
G04  20418491.287 0
G05  23340963.326 0
G16  23479304.836 0
G20  22650329.206 0
G21  21426330.035 0
G25  22638504.142 0
G26  21476053.788 0
G29  20730145.511 0
G31  22433957.936 0
> 2018 03 15 18 48 53.7000000  0  9      
G04  20418469.456 0
G05  23340977.492 0
G16  23479241.657 0
G20  22650280.285 0
G21  21426299.509 0
G25  22638564.111 0
G26  21476012.942 0
G29  20730175.260 0
G31  22434001.693 0
> 2018 03 15 18 48 53.8000000  0  9      
G04  20418447.626 0
G05  23340991.659 0
G16  23479178.479 0
G20  22650231.365 0
G21  21426268.985 0
G25  22638624.081 0
G26  21475972.096 0
G29  20730205.008 0
G31  22434045.451 0
> 2018 03 15 18 48 53.9000000  0  9      
G04  20418425.798 0
G05  23341005.827 0
G16  23479115.301 0
G20  22650182.445 0
G21  21426238.461 0
G25  22638684.050 0
G26  21475931.252 0
G29  20730234.757 0
G31  22434089.210 0
> 2018 03 15 18 48 54.0000000  0  9      
G04  20418403.971 0
G05  23341019.997 0
G16  23479052.124 0
G20  22650133.525 0
G21  21426207.938 0
G25  22638744.020 0
G26  21475890.408 0
G29  20730264.507 0
G31  22434132.970 0
> 2018 03 15 18 48 54.1000000  0  9      
G04  20418382.145 0
G05  23341034.167 0
G16  23478988.948 0
G20  22650084.606 0
G21  21426177.416 0
G25  22638803.990 0
G26  21475849.566 0
G29  20730294.257 0
G31  22434176.731 0
> 2018 03 15 18 48 54.2000000  0  9      
G04  20418360.320 0
G05  23341048.337 0
G16  23478925.773 0
G20  22650035.686 0
G21  21426146.895 0
G25  22638863.960 0
G26  21475808.725 0
G29  20730324.007 0
G31  22434220.493 0
> 2018 03 15 18 48 54.3000000  0  9      
G04  20418338.497 0
G05  23341062.509 0
G16  23478862.599 0
G20  22649986.768 0
G21  21426116.375 0
G25  22638923.931 0
G26  21475767.885 0
G29  20730353.758 0
G31  22434264.257 0
> 2018 03 15 18 48 54.4000000  0  9      
G04  20418316.675 0
G05  23341076.682 0
G16  23478799.425 0
G20  22649937.849 0
G21  21426085.856 0
G25  22638983.902 0
G26  21475727.046 0
G29  20730383.509 0
G31  22434308.021 0
> 2018 03 15 18 48 54.5000000  0  9      
G04  20418294.854 0
G05  23341090.856 0
G16  23478736.252 0
G20  22649888.931 0
G21  21426055.338 0
G25  22639043.873 0
G26  21475686.208 0
G29  20730413.261 0
G31  22434351.787 0
> 2018 03 15 18 48 54.6000000  0  9      
G04  20418273.034 0
G05  23341105.031 0
G16  23478673.079 0
G20  22649840.013 0
G21  21426024.821 0
G25  22639103.844 0
G26  21475645.371 0
G29  20730443.013 0
G31  22434395.554 0
> 2018 03 15 18 48 54.7000000  0  9      
G04  20418251.216 0
G05  23341119.206 0
G16  23478609.908 0
G20  22649791.096 0
G21  21425994.304 0
G25  22639163.815 0
G26  21475604.535 0
G29  20730472.765 0
G31  22434439.322 0
> 2018 03 15 18 48 54.8000000  0  9      
G04  20418229.398 0
G05  23341133.383 0
G16  23478546.737 0
G20  22649742.179 0
G21  21425963.788 0
G25  22639223.787 0
G26  21475563.701 0
G29  20730502.518 0
G31  22434483.091 0
> 2018 03 15 18 48 54.9000000  0  9      
G04  20418207.582 0
G05  23341147.561 0
G16  23478483.567 0
G20  22649693.262 0
G21  21425933.274 0
G25  22639283.759 0
G26  21475522.867 0
G29  20730532.272 0
G31  22434526.861 0
> 2018 03 15 18 48 55.0000000  0  9      
G04  20418185.768 0
G05  23341161.739 0
G16  23478420.398 0
G20  22649644.346 0
G21  21425902.760 0
G25  22639343.731 0
G26  21475482.035 0
G29  20730562.025 0
G31  22434570.632 0
> 2018 03 15 18 48 55.1000000  0  9      
G04  20418163.954 0
G05  23341175.919 0
G16  23478357.229 0
G20  22649595.430 0
G21  21425872.247 0
G25  22639403.704 0
G26  21475441.204 0
G29  20730591.779 0
G31  22434614.405 0
> 2018 03 15 18 48 55.2000000  0  9      
G04  20418142.142 0
G05  23341190.099 0
G16  23478294.061 0
G20  22649546.514 0
G21  21425841.735 0
G25  22639463.676 0
G26  21475400.374 0
G29  20730621.534 0
G31  22434658.178 0
> 2018 03 15 18 48 55.3000000  0  9      
G04  20418120.331 0
G05  23341204.281 0
G16  23478230.894 0
G20  22649497.599 0
G21  21425811.223 0
G25  22639523.649 0
G26  21475359.545 0
G29  20730651.289 0
G31  22434701.953 0
> 2018 03 15 18 48 55.4000000  0  9      
G04  20418098.521 0
G05  23341218.463 0
G16  23478167.728 0
G20  22649448.683 0
G21  21425780.713 0
G25  22639583.622 0
G26  21475318.717 0
G29  20730681.044 0
G31  22434745.728 0
> 2018 03 15 18 48 55.5000000  0  9      
G04  20418076.712 0
G05  23341232.646 0
G16  23478104.563 0
G20  22649399.769 0
G21  21425750.203 0
G25  22639643.595 0
G26  21475277.890 0
G29  20730710.800 0
G31  22434789.505 0
> 2018 03 15 18 48 55.6000000  0  9      
G04  20418054.905 0
G05  23341246.831 0
G16  23478041.398 0
G20  22649350.854 0
G21  21425719.695 0
G25  22639703.569 0
G26  21475237.064 0
G29  20730740.556 0
G31  22434833.283 0
> 2018 03 15 18 48 55.7000000  0  9      
G04  20418033.099 0
G05  23341261.016 0
G16  23477978.234 0
G20  22649301.940 0
G21  21425689.187 0
G25  22639763.543 0
G26  21475196.240 0
G29  20730770.313 0
G31  22434877.062 0
> 2018 03 15 18 48 55.8000000  0  9      
G04  20418011.294 0
G05  23341275.202 0
G16  23477915.071 0
G20  22649253.026 0
G21  21425658.680 0
G25  22639823.517 0
G26  21475155.416 0
G29  20730800.070 0
G31  22434920.842 0
> 2018 03 15 18 48 55.9000000  0  9      
G04  20417989.490 0
G05  23341289.390 0
G16  23477851.908 0
G20  22649204.113 0
G21  21425628.174 0
G25  22639883.491 0
G26  21475114.594 0
G29  20730829.827 0
G31  22434964.623 0
> 2018 03 15 18 48 56.0000000  0  9      
G04  20417967.688 0
G05  23341303.578 0
G16  23477788.747 0
G20  22649155.200 0
G21  21425597.669 0
G25  22639943.465 0
G26  21475073.772 0
G29  20730859.585 0
G31  22435008.406 0
> 2018 03 15 18 48 56.1000000  0  9      
G04  20417945.887 0
G05  23341317.767 0
G16  23477725.586 0
G20  22649106.287 0
G21  21425567.165 0
G25  22640003.440 0
G26  21475032.952 0
G29  20730889.343 0
G31  22435052.189 0
> 2018 03 15 18 48 56.2000000  0  9      
G04  20417924.087 0
G05  23341331.957 0
G16  23477662.426 0
G20  22649057.375 0
G21  21425536.661 0
G25  22640063.415 0
G26  21474992.133 0
G29  20730919.102 0
G31  22435095.974 0
> 2018 03 15 18 48 56.3000000  0  9      
G04  20417902.288 0
G05  23341346.148 0
G16  23477599.266 0
G20  22649008.462 0
G21  21425506.159 0
G25  22640123.390 0
G26  21474951.315 0
G29  20730948.861 0
G31  22435139.759 0
> 2018 03 15 18 48 56.4000000  0  9      
G04  20417880.491 0
G05  23341360.341 0
G16  23477536.108 0
G20  22648959.551 0
G21  21425475.657 0
G25  22640183.365 0
G26  21474910.498 0
G29  20730978.621 0
G31  22435183.546 0
> 2018 03 15 18 48 56.5000000  0  9      
G04  20417858.695 0
G05  23341374.534 0
G16  23477472.950 0
G20  22648910.639 0
G21  21425445.156 0
G25  22640243.340 0
G26  21474869.683 0
G29  20731008.381 0
G31  22435227.334 0
> 2018 03 15 18 48 56.6000000  0  9      
G04  20417836.900 0
G05  23341388.728 0
G16  23477409.793 0
G20  22648861.728 0
G21  21425414.656 0
G25  22640303.316 0
G26  21474828.868 0
G29  20731038.141 0
G31  22435271.122 0
> 2018 03 15 18 48 56.7000000  0  9      
G04  20417815.106 0
G05  23341402.923 0
G16  23477346.636 0
G20  22648812.817 0
G21  21425384.157 0
G25  22640363.292 0
G26  21474788.055 0
G29  20731067.902 0
G31  22435314.912 0
> 2018 03 15 18 48 56.8000000  0  9      
G04  20417793.313 0
G05  23341417.119 0
G16  23477283.481 0
G20  22648763.907 0
G21  21425353.658 0
G25  22640423.268 0
G26  21474747.242 0
G29  20731097.663 0
G31  22435358.703 0
> 2018 03 15 18 48 56.9000000  0  9      
G04  20417771.522 0
G05  23341431.316 0
G16  23477220.326 0
G20  22648714.996 0
G21  21425323.161 0
G25  22640483.245 0
G26  21474706.431 0
G29  20731127.425 0
G31  22435402.495 0
> 2018 03 15 18 48 57.0000000  0  9      
G04  20417749.732 0
G05  23341445.514 0
G16  23477157.172 0
G20  22648666.087 0
G21  21425292.664 0
G25  22640543.221 0
G26  21474665.621 0
G29  20731157.187 0
G31  22435446.288 0
> 2018 03 15 18 48 57.1000000  0  9      
G04  20417727.943 0
G05  23341459.713 0
G16  23477094.019 0
G20  22648617.177 0
G21  21425262.169 0
G25  22640603.198 0
G26  21474624.812 0
G29  20731186.950 0
G31  22435490.083 0
> 2018 03 15 18 48 57.2000000  0  9      
G04  20417706.156 0
G05  23341473.913 0
G16  23477030.866 0
G20  22648568.268 0
G21  21425231.674 0
G25  22640663.175 0
G26  21474584.004 0
G29  20731216.713 0
G31  22435533.878 0
> 2018 03 15 18 48 57.3000000  0  9      
G04  20417684.370 0
G05  23341488.115 0
G16  23476967.715 0
G20  22648519.359 0
G21  21425201.180 0
G25  22640723.152 0
G26  21474543.197 0
G29  20731246.476 0
G31  22435577.674 0
> 2018 03 15 18 48 57.4000000  0  9      
G04  20417662.584 0
G05  23341502.317 0
G16  23476904.564 0
G20  22648470.450 0
G21  21425170.687 0
G25  22640783.129 0
G26  21474502.391 0
G29  20731276.240 0
G31  22435621.472 0
> 2018 03 15 18 48 57.5000000  0  9      
G04  20417640.801 0
G05  23341516.520 0
G16  23476841.414 0
G20  22648421.542 0
G21  21425140.194 0
G25  22640843.107 0
G26  21474461.587 0
G29  20731306.004 0
G31  22435665.270 0
> 2018 03 15 18 48 57.6000000  0  9      
G04  20417619.018 0
G05  23341530.724 0
G16  23476778.264 0
G20  22648372.634 0
G21  21425109.703 0
G25  22640903.085 0
G26  21474420.783 0
G29  20731335.769 0
G31  22435709.070 0
> 2018 03 15 18 48 57.7000000  0  9      
G04  20417597.237 0
G05  23341544.929 0
G16  23476715.116 0
G20  22648323.726 0
G21  21425079.212 0
G25  22640963.063 0
G26  21474379.981 0
G29  20731365.534 0
G31  22435752.870 0
> 2018 03 15 18 48 57.8000000  0  9      
G04  20417575.457 0
G05  23341559.135 0
G16  23476651.968 0
G20  22648274.819 0
G21  21425048.722 0
G25  22641023.041 0
G26  21474339.180 0
G29  20731395.300 0
G31  22435796.672 0
> 2018 03 15 18 48 57.9000000  0  9      
G04  20417553.678 0
G05  23341573.342 0
G16  23476588.821 0
G20  22648225.912 0
G21  21425018.233 0
G25  22641083.019 0
G26  21474298.379 0
G29  20731425.066 0
G31  22435840.475 0
> 2018 03 15 18 48 58.0000000  0  9      
G04  20417531.900 0
G05  23341587.551 0
G16  23476525.674 0
G20  22648177.005 0
G21  21424987.745 0
G25  22641142.998 0
G26  21474257.580 0
G29  20731454.833 0
G31  22435884.279 0
> 2018 03 15 18 48 58.1000000  0  9      
G04  20417510.124 0
G05  23341601.760 0
G16  23476462.529 0
G20  22648128.099 0
G21  21424957.258 0
G25  22641202.977 0
G26  21474216.782 0
G29  20731484.600 0
G31  22435928.084 0
> 2018 03 15 18 48 58.2000000  0  9      
G04  20417488.349 0
G05  23341615.970 0
G16  23476399.384 0
G20  22648079.193 0
G21  21424926.771 0
G25  22641262.956 0
G26  21474175.986 0
G29  20731514.367 0
G31  22435971.890 0
> 2018 03 15 18 48 58.3000000  0  9      
G04  20417466.575 0
G05  23341630.181 0
G16  23476336.240 0
G20  22648030.287 0
G21  21424896.286 0
G25  22641322.935 0
G26  21474135.190 0
G29  20731544.135 0
G31  22436015.697 0
> 2018 03 15 18 48 58.4000000  0  9      
G04  20417444.802 0
G05  23341644.393 0
G16  23476273.097 0
G20  22647981.382 0
G21  21424865.801 0
G25  22641382.915 0
G26  21474094.395 0
G29  20731573.903 0
G31  22436059.505 0
> 2018 03 15 18 48 58.5000000  0  9      
G04  20417423.031 0
G05  23341658.607 0
G16  23476209.955 0
G20  22647932.477 0
G21  21424835.317 0
G25  22641442.894 0
G26  21474053.602 0
G29  20731603.672 0
G31  22436103.314 0
> 2018 03 15 18 48 58.6000000  0  9      
G04  20417401.260 0
G05  23341672.821 0
G16  23476146.813 0
G20  22647883.572 0
G21  21424804.834 0
G25  22641502.874 0
G26  21474012.810 0
G29  20731633.441 0
G31  22436147.124 0
> 2018 03 15 18 48 58.7000000  0  9      
G04  20417379.491 0
G05  23341687.036 0
G16  23476083.672 0
G20  22647834.668 0
G21  21424774.351 0
G25  22641562.854 0
G26  21473972.018 0
G29  20731663.211 0
G31  22436190.935 0
> 2018 03 15 18 48 58.8000000  0  9      
G04  20417357.724 0
G05  23341701.253 0
G16  23476020.532 0
G20  22647785.763 0
G21  21424743.870 0
G25  22641622.834 0
G26  21473931.228 0
G29  20731692.981 0
G31  22436234.747 0
> 2018 03 15 18 48 58.9000000  0  9      
G04  20417335.957 0
G05  23341715.470 0
G16  23475957.393 0
G20  22647736.860 0
G21  21424713.389 0
G25  22641682.815 0
G26  21473890.439 0
G29  20731722.752 0
G31  22436278.561 0
> 2018 03 15 18 48 59.0000000  0  9      
G04  20417314.192 0
G05  23341729.689 0
G16  23475894.255 0
G20  22647687.956 0
G21  21424682.909 0
G25  22641742.795 0
G26  21473849.651 0
G29  20731752.523 0
G31  22436322.375 0
> 2018 03 15 18 48 59.1000000  0  9      
G04  20417292.428 0
G05  23341743.908 0
G16  23475831.117 0
G20  22647639.053 0
G21  21424652.430 0
G25  22641802.776 0
G26  21473808.865 0
G29  20731782.294 0
G31  22436366.190 0
> 2018 03 15 18 48 59.2000000  0  9      
G04  20417270.665 0
G05  23341758.129 0
G16  23475767.980 0
G20  22647590.150 0
G21  21424621.952 0
G25  22641862.757 0
G26  21473768.079 0
G29  20731812.066 0
G31  22436410.007 0
> 2018 03 15 18 48 59.3000000  0  9      
G04  20417248.904 0
G05  23341772.350 0
G16  23475704.844 0
G20  22647541.247 0
G21  21424591.475 0
G25  22641922.738 0
G26  21473727.294 0
G29  20731841.839 0
G31  22436453.824 0
> 2018 03 15 18 48 59.4000000  0  9      
G04  20417227.143 0
G05  23341786.573 0
G16  23475641.709 0
G20  22647492.345 0
G21  21424560.998 0
G25  22641982.720 0
G26  21473686.511 0
G29  20731871.611 0
G31  22436497.643 0
> 2018 03 15 18 48 59.5000000  0  9      
G04  20417205.384 0
G05  23341800.796 0
G16  23475578.574 0
G20  22647443.443 0
G21  21424530.523 0
G25  22642042.701 0
G26  21473645.729 0
G29  20731901.385 0
G31  22436541.462 0
> 2018 03 15 18 48 59.6000000  0  9      
G04  20417183.626 0
G05  23341815.021 0
G16  23475515.440 0
G20  22647394.541 0
G21  21424500.048 0
G25  22642102.683 0
G26  21473604.948 0
G29  20731931.158 0
G31  22436585.283 0
> 2018 03 15 18 48 59.7000000  0  9      
G04  20417161.870 0
G05  23341829.247 0
G16  23475452.307 0
G20  22647345.640 0
G21  21424469.574 0
G25  22642162.665 0
G26  21473564.167 0
G29  20731960.933 0
G31  22436629.104 0
> 2018 03 15 18 48 59.8000000  0  9      
G04  20417140.115 0
G05  23341843.474 0
G16  23475389.175 0
G20  22647296.739 0
G21  21424439.100 0
G25  22642222.647 0
G26  21473523.389 0
G29  20731990.707 0
G31  22436672.927 0
> 2018 03 15 18 48 59.9000000  0  9      
G04  20417118.360 0
G05  23341857.701 0
G16  23475326.044 0
G20  22647247.838 0
G21  21424408.628 0
G25  22642282.629 0
G26  21473482.611 0
G29  20732020.483 0
G31  22436716.751 0
> 2018 03 15 18 49  0.0000000  0  9      
G04  20417096.608 0
G05  23341871.930 0
G16  23475262.913 0
G20  22647198.938 0
G21  21424378.156 0
G25  22642342.612 0
G26  21473441.834 0
G29  20732050.258 0
G31  22436760.575 0
> 2018 03 15 18 49  0.1000000  0  9      
G04  20417074.856 0
G05  23341886.160 0
G16  23475199.783 0
G20  22647150.038 0
G21  21424347.685 0
G25  22642402.594 0
G26  21473401.058 0
G29  20732080.034 0
G31  22436804.401 0
> 2018 03 15 18 49  0.2000000  0  9      
G04  20417053.106 0
G05  23341900.391 0
G16  23475136.654 0
G20  22647101.138 0
G21  21424317.215 0
G25  22642462.577 0
G26  21473360.284 0
G29  20732109.811 0
G31  22436848.228 0
> 2018 03 15 18 49  0.3000000  0  9      
G04  20417031.356 0
G05  23341914.623 0
G16  23475073.526 0
G20  22647052.239 0
G21  21424286.746 0
G25  22642522.560 0
G26  21473319.511 0
G29  20732139.588 0
G31  22436892.055 0
> 2018 03 15 18 49  0.4000000  0  9      
G04  20417009.609 0
G05  23341928.857 0
G16  23475010.398 0
G20  22647003.339 0
G21  21424256.278 0
G25  22642582.544 0
G26  21473278.738 0
G29  20732169.365 0
G31  22436935.884 0
> 2018 03 15 18 49  0.5000000  0  9      
G04  20416987.862 0
G05  23341943.091 0
G16  23474947.272 0
G20  22646954.441 0
G21  21424225.810 0
G25  22642642.527 0
G26  21473237.967 0
G29  20732199.143 0
G31  22436979.714 0
> 2018 03 15 18 49  0.6000000  0  9      
G04  20416966.116 0
G05  23341957.326 0
G16  23474884.146 0
G20  22646905.542 0
G21  21424195.343 0
G25  22642702.511 0
G26  21473197.197 0
G29  20732228.922 0
G31  22437023.545 0
> 2018 03 15 18 49  0.7000000  0  9      
G04  20416944.372 0
G05  23341971.562 0
G16  23474821.021 0
G20  22646856.644 0
G21  21424164.877 0
G25  22642762.494 0
G26  21473156.428 0
G29  20732258.700 0
G31  22437067.376 0
> 2018 03 15 18 49  0.8000000  0  9      
G04  20416922.629 0
G05  23341985.800 0
G16  23474757.896 0
G20  22646807.746 0
G21  21424134.412 0
G25  22642822.478 0
G26  21473115.660 0
G29  20732288.480 0
G31  22437111.209 0
> 2018 03 15 18 49  0.9000000  0  9      
G04  20416900.888 0
G05  23342000.038 0
G16  23474694.773 0
G20  22646758.848 0
G21  21424103.947 0
G25  22642882.463 0
G26  21473074.894 0
G29  20732318.260 0
G31  22437155.043 0
> 2018 03 15 18 49  1.0000000  0  9      
G04  20416879.147 0
G05  23342014.278 0
G16  23474631.650 0
G20  22646709.951 0
G21  21424073.484 0
G25  22642942.447 0
G26  21473034.128 0
G29  20732348.040 0
G31  22437198.878 0
> 2018 03 15 18 49  1.1000000  0  9      
G04  20416857.408 0
G05  23342028.519 0
G16  23474568.528 0
G20  22646661.054 0
G21  21424043.021 0
G25  22643002.431 0
G26  21472993.364 0
G29  20732377.821 0
G31  22437242.714 0
> 2018 03 15 18 49  1.2000000  0  9      
G04  20416835.670 0
G05  23342042.760 0
G16  23474505.407 0
G20  22646612.157 0
G21  21424012.559 0
G25  22643062.416 0
G26  21472952.601 0
G29  20732407.602 0
G31  22437286.550 0
> 2018 03 15 18 49  1.3000000  0  9      
G04  20416813.933 0
G05  23342057.003 0
G16  23474442.286 0
G20  22646563.261 0
G21  21423982.098 0
G25  22643122.401 0
G26  21472911.838 0
G29  20732437.384 0
G31  22437330.388 0
> 2018 03 15 18 49  1.4000000  0  9      
G04  20416792.198 0
G05  23342071.247 0
G16  23474379.167 0
G20  22646514.365 0
G21  21423951.637 0
G25  22643182.386 0
G26  21472871.077 0
G29  20732467.166 0
G31  22437374.227 0
> 2018 03 15 18 49  1.5000000  0  9      
G04  20416770.463 0
G05  23342085.492 0
G16  23474316.048 0
G20  22646465.469 0
G21  21423921.178 0
G25  22643242.371 0
G26  21472830.317 0
G29  20732496.949 0
G31  22437418.067 0
> 2018 03 15 18 49  1.6000000  0  9      
G04  20416748.730 0
G05  23342099.738 0
G16  23474252.930 0
G20  22646416.574 0
G21  21423890.719 0
G25  22643302.357 0
G26  21472789.558 0
G29  20732526.732 0
G31  22437461.908 0
> 2018 03 15 18 49  1.7000000  0  9      
G04  20416726.998 0
G05  23342113.986 0
G16  23474189.813 0
G20  22646367.679 0
G21  21423860.261 0
G25  22643362.342 0
G26  21472748.801 0
G29  20732556.515 0
G31  22437505.749 0
> 2018 03 15 18 49  1.8000000  0  9      
G04  20416705.268 0
G05  23342128.234 0
G16  23474126.696 0
G20  22646318.784 0
G21  21423829.803 0
G25  22643422.328 0
G26  21472708.044 0
G29  20732586.299 0
G31  22437549.592 0
> 2018 03 15 18 49  1.9000000  0  9      
G04  20416683.538 0
G05  23342142.483 0
G16  23474063.580 0
G20  22646269.889 0
G21  21423799.347 0
G25  22643482.314 0
G26  21472667.289 0
G29  20732616.084 0
G31  22437593.436 0
> 2018 03 15 18 49  2.0000000  0  9      
G04  20416661.810 0
G05  23342156.734 0
G16  23474000.466 0
G20  22646220.995 0
G21  21423768.891 0
G25  22643542.300 0
G26  21472626.534 0
G29  20732645.869 0
G31  22437637.281 0
> 2018 03 15 18 49  2.1000000  0  9      
G04  20416640.084 0
G05  23342170.985 0
G16  23473937.351 0
G20  22646172.101 0
G21  21423738.436 0
G25  22643602.287 0
G26  21472585.781 0
G29  20732675.655 0
G31  22437681.127 0
> 2018 03 15 18 49  2.2000000  0  9      
G04  20416618.358 0
G05  23342185.238 0
G16  23473874.238 0
G20  22646123.208 0
G21  21423707.982 0
G25  22643662.273 0
G26  21472545.029 0
G29  20732705.441 0
G31  22437724.973 0
> 2018 03 15 18 49  2.3000000  0  9      
G04  20416596.633 0
G05  23342199.492 0
G16  23473811.126 0
G20  22646074.315 0
G21  21423677.529 0
G25  22643722.260 0
G26  21472504.278 0
G29  20732735.227 0
G31  22437768.821 0
> 2018 03 15 18 49  2.4000000  0  9      
G04  20416574.910 0
G05  23342213.747 0
G16  23473748.014 0
G20  22646025.422 0
G21  21423647.076 0
G25  22643782.247 0
G26  21472463.528 0
G29  20732765.014 0
G31  22437812.670 0
> 2018 03 15 18 49  2.5000000  0  9      
G04  20416553.188 0
G05  23342228.003 0
G16  23473684.903 0
G20  22645976.529 0
G21  21423616.624 0
G25  22643842.234 0
G26  21472422.779 0
G29  20732794.802 0
G31  22437856.519 0
> 2018 03 15 18 49  2.6000000  0  9      
G04  20416531.468 0
G05  23342242.260 0
G16  23473621.793 0
G20  22645927.637 0
G21  21423586.173 0
G25  22643902.221 0
G26  21472382.031 0
G29  20732824.590 0
G31  22437900.370 0
> 2018 03 15 18 49  2.7000000  0  9      
G04  20416509.748 0
G05  23342256.518 0
G16  23473558.683 0
G20  22645878.745 0
G21  21423555.723 0
G25  22643962.208 0
G26  21472341.285 0
G29  20732854.379 0
G31  22437944.222 0
> 2018 03 15 18 49  2.8000000  0  9      
G04  20416488.030 0
G05  23342270.777 0
G16  23473495.575 0
G20  22645829.853 0
G21  21423525.274 0
G25  22644022.196 0
G26  21472300.539 0
G29  20732884.168 0
G31  22437988.074 0
> 2018 03 15 18 49  2.9000000  0  9      
G04  20416466.313 0
G05  23342285.038 0
G16  23473432.467 0
G20  22645780.962 0
G21  21423494.825 0
G25  22644082.183 0
G26  21472259.795 0
G29  20732913.957 0
G31  22438031.928 0
> 2018 03 15 18 49  3.0000000  0  9      
G04  20416444.597 0
G05  23342299.300 0
G16  23473369.360 0
G20  22645732.070 0
G21  21423464.377 0
G25  22644142.171 0
G26  21472219.052 0
G29  20732943.747 0
G31  22438075.782 0
> 2018 03 15 18 49  3.1000000  0  9      
G04  20416422.883 0
G05  23342313.562 0
G16  23473306.254 0
G20  22645683.180 0
G21  21423433.930 0
G25  22644202.159 0
G26  21472178.310 0
G29  20732973.538 0
G31  22438119.638 0
> 2018 03 15 18 49  3.2000000  0  9      
G04  20416401.170 0
G05  23342327.826 0
G16  23473243.148 0
G20  22645634.289 0
G21  21423403.483 0
G25  22644262.148 0
G26  21472137.569 0
G29  20733003.329 0
G31  22438163.494 0
> 2018 03 15 18 49  3.3000000  0  9      
G04  20416379.457 0
G05  23342342.091 0
G16  23473180.044 0
G20  22645585.399 0
G21  21423373.038 0
G25  22644322.136 0
G26  21472096.829 0
G29  20733033.120 0
G31  22438207.351 0
> 2018 03 15 18 49  3.4000000  0  9      
G04  20416357.747 0
G05  23342356.357 0
G16  23473116.940 0
G20  22645536.509 0
G21  21423342.593 0
G25  22644382.125 0
G26  21472056.090 0
G29  20733062.912 0
G31  22438251.210 0
> 2018 03 15 18 49  3.5000000  0  9      
G04  20416336.037 0
G05  23342370.625 0
G16  23473053.837 0
G20  22645487.620 0
G21  21423312.149 0
G25  22644442.113 0
G26  21472015.352 0
G29  20733092.705 0
G31  22438295.069 0
> 2018 03 15 18 49  3.6000000  0  9      
G04  20416314.329 0
G05  23342384.893 0
G16  23472990.735 0
G20  22645438.731 0
G21  21423281.705 0
G25  22644502.102 0
G26  21471974.616 0
G29  20733122.498 0
G31  22438338.929 0
> 2018 03 15 18 49  3.7000000  0  9      
G04  20416292.622 0
G05  23342399.162 0
G16  23472927.633 0
G20  22645389.842 0
G21  21423251.263 0
G25  22644562.091 0
G26  21471933.880 0
G29  20733152.291 0
G31  22438382.791 0
> 2018 03 15 18 49  3.8000000  0  9      
G04  20416270.916 0
G05  23342413.433 0
G16  23472864.532 0
G20  22645340.953 0
G21  21423220.821 0
G25  22644622.081 0
G26  21471893.146 0
G29  20733182.085 0
G31  22438426.653 0
> 2018 03 15 18 49  3.9000000  0  9      
G04  20416249.211 0
G05  23342427.705 0
G16  23472801.433 0
G20  22645292.065 0
G21  21423190.380 0
G25  22644682.070 0
G26  21471852.413 0
G29  20733211.880 0
G31  22438470.516 0
> 2018 03 15 18 49  4.0000000  0  9      
G04  20416227.508 0
G05  23342441.978 0
G16  23472738.333 0
G20  22645243.177 0
G21  21423159.940 0
G25  22644742.060 0
G26  21471811.681 0
G29  20733241.675 0
G31  22438514.380 0
> 2018 03 15 18 49  4.1000000  0  9      
G04  20416205.806 0
G05  23342456.252 0
G16  23472675.235 0
G20  22645194.289 0
G21  21423129.500 0
G25  22644802.049 0
G26  21471770.950 0
G29  20733271.470 0
G31  22438558.245 0
> 2018 03 15 18 49  4.2000000  0  9      
G04  20416184.105 0
G05  23342470.527 0
G16  23472612.138 0
G20  22645145.402 0
G21  21423099.061 0
G25  22644862.039 0
G26  21471730.220 0
G29  20733301.266 0
G31  22438602.111 0
> 2018 03 15 18 49  4.3000000  0  9      
G04  20416162.405 0
G05  23342484.804 0
G16  23472549.041 0
G20  22645096.515 0
G21  21423068.623 0
G25  22644922.030 0
G26  21471689.491 0
G29  20733331.063 0
G31  22438645.978 0
> 2018 03 15 18 49  4.4000000  0  9      
G04  20416140.706 0
G05  23342499.081 0
G16  23472485.945 0
G20  22645047.628 0
G21  21423038.186 0
G25  22644982.020 0
G26  21471648.763 0
G29  20733360.860 0
G31  22438689.846 0
> 2018 03 15 18 49  4.5000000  0  9      
G04  20416119.009 0
G05  23342513.360 0
G16  23472422.850 0
G20  22644998.742 0
G21  21423007.750 0
G25  22645042.010 0
G26  21471608.037 0
G29  20733390.658 0
G31  22438733.715 0
> 2018 03 15 18 49  4.6000000  0  9      
G04  20416097.313 0
G05  23342527.640 0
G16  23472359.755 0
G20  22644949.856 0
G21  21422977.314 0
G25  22645102.001 0
G26  21471567.311 0
G29  20733420.456 0
G31  22438777.584 0
> 2018 03 15 18 49  4.7000000  0  9      
G04  20416075.618 0
G05  23342541.921 0
G16  23472296.662 0
G20  22644900.970 0
G21  21422946.879 0
G25  22645161.992 0
G26  21471526.587 0
G29  20733450.254 0
G31  22438821.455 0
> 2018 03 15 18 49  4.8000000  0  9      
G04  20416053.925 0
G05  23342556.203 0
G16  23472233.569 0
G20  22644852.085 0
G21  21422916.445 0
G25  22645221.983 0
G26  21471485.864 0
G29  20733480.054 0
G31  22438865.327 0
> 2018 03 15 18 49  4.9000000  0  9      
G04  20416032.232 0
G05  23342570.486 0
G16  23472170.477 0
G20  22644803.199 0
G21  21422886.011 0
G25  22645281.974 0
G26  21471445.142 0
G29  20733509.853 0
G31  22438909.199 0
> 2018 03 15 18 49  5.0000000  0  9      
G04  20416010.541 0
G05  23342584.771 0
G16  23472107.386 0
G20  22644754.315 0
G21  21422855.578 0
G25  22645341.965 0
G26  21471404.421 0
G29  20733539.653 0
G31  22438953.072 0
> 2018 03 15 18 49  5.1000000  0  9      
G04  20415988.851 0
G05  23342599.057 0
G16  23472044.295 0
G20  22644705.430 0
G21  21422825.146 0
G25  22645401.957 0
G26  21471363.701 0
G29  20733569.454 0
G31  22438996.947 0
> 2018 03 15 18 49  5.2000000  0  9      
G04  20415967.163 0
G05  23342613.343 0
G16  23471981.206 0
G20  22644656.546 0
G21  21422794.715 0
G25  22645461.948 0
G26  21471322.982 0
G29  20733599.255 0
G31  22439040.822 0
> 2018 03 15 18 49  5.3000000  0  9      
G04  20415945.475 0
G05  23342627.631 0
G16  23471918.117 0
G20  22644607.662 0
G21  21422764.284 0
G25  22645521.940 0
G26  21471282.264 0
G29  20733629.057 0
G31  22439084.698 0
> 2018 03 15 18 49  5.4000000  0  9      
G04  20415923.789 0
G05  23342641.921 0
G16  23471855.029 0
G20  22644558.779 0
G21  21422733.855 0
G25  22645581.932 0
G26  21471241.548 0
G29  20733658.859 0
G31  22439128.575 0
> 2018 03 15 18 49  5.5000000  0  9      
G04  20415902.104 0
G05  23342656.211 0
G16  23471791.941 0
G20  22644509.895 0
G21  21422703.426 0
G25  22645641.924 0
G26  21471200.832 0
G29  20733688.662 0
G31  22439172.454 0
> 2018 03 15 18 49  5.6000000  0  9      
G04  20415880.420 0
G05  23342670.503 0
G16  23471728.855 0
G20  22644461.012 0
G21  21422672.997 0
G25  22645701.917 0
G26  21471160.118 0
G29  20733718.465 0
G31  22439216.332 0
> 2018 03 15 18 49  5.7000000  0  9      
G04  20415858.738 0
G05  23342684.795 0
G16  23471665.769 0
G20  22644412.130 0
G21  21422642.570 0
G25  22645761.909 0
G26  21471119.405 0
G29  20733748.269 0
G31  22439260.212 0
> 2018 03 15 18 49  5.8000000  0  9      
G04  20415837.057 0
G05  23342699.089 0
G16  23471602.684 0
G20  22644363.248 0
G21  21422612.143 0
G25  22645821.902 0
G26  21471078.692 0
G29  20733778.074 0
G31  22439304.093 0
> 2018 03 15 18 49  5.9000000  0  9      
G04  20415815.377 0
G05  23342713.384 0
G16  23471539.600 0
G20  22644314.366 0
G21  21422581.717 0
G25  22645881.894 0
G26  21471037.981 0
G29  20733807.879 0
G31  22439347.975 0
> 2018 03 15 18 49  6.0000000  0  9      
G04  20415793.698 0
G05  23342727.681 0
G16  23471476.516 0
G20  22644265.484 0
G21  21422551.291 0
G25  22645941.887 0
G26  21470997.271 0
G29  20733837.684 0
G31  22439391.857 0
> 2018 03 15 18 49  6.1000000  0  9      
G04  20415772.020 0
G05  23342741.978 0
G16  23471413.434 0
G20  22644216.603 0
G21  21422520.867 0
G25  22646001.881 0
G26  21470956.563 0
G29  20733867.490 0
G31  22439435.741 0
> 2018 03 15 18 49  6.2000000  0  9      
G04  20415750.344 0
G05  23342756.277 0
G16  23471350.352 0
G20  22644167.722 0
G21  21422490.443 0
G25  22646061.874 0
G26  21470915.855 0
G29  20733897.297 0
G31  22439479.625 0
> 2018 03 15 18 49  6.3000000  0  9      
G04  20415728.669 0
G05  23342770.577 0
G16  23471287.271 0
G20  22644118.841 0
G21  21422460.020 0
G25  22646121.867 0
G26  21470875.148 0
G29  20733927.104 0
G31  22439523.511 0
> 2018 03 15 18 49  6.4000000  0  9      
G04  20415706.995 0
G05  23342784.878 0
G16  23471224.191 0
G20  22644069.961 0
G21  21422429.597 0
G25  22646181.861 0
G26  21470834.443 0
G29  20733956.911 0
G31  22439567.397 0
> 2018 03 15 18 49  6.5000000  0  9      
G04  20415685.322 0
G05  23342799.180 0
G16  23471161.111 0
G20  22644021.081 0
G21  21422399.176 0
G25  22646241.855 0
G26  21470793.738 0
G29  20733986.719 0
G31  22439611.284 0
> 2018 03 15 18 49  6.6000000  0  9      
G04  20415663.651 0
G05  23342813.484 0
G16  23471098.032 0
G20  22643972.201 0
G21  21422368.755 0
G25  22646301.849 0
G26  21470753.035 0
G29  20734016.528 0
G31  22439655.172 0
> 2018 03 15 18 49  6.7000000  0  9      
G04  20415641.980 0
G05  23342827.788 0
G16  23471034.954 0
G20  22643923.322 0
G21  21422338.334 0
G25  22646361.843 0
G26  21470712.333 0
G29  20734046.337 0
G31  22439699.061 0
> 2018 03 15 18 49  6.8000000  0  9      
G04  20415620.311 0
G05  23342842.094 0
G16  23470971.877 0
G20  22643874.443 0
G21  21422307.915 0
G25  22646421.837 0
G26  21470671.632 0
G29  20734076.147 0
G31  22439742.951 0
> 2018 03 15 18 49  6.9000000  0  9      
G04  20415598.644 0
G05  23342856.402 0
G16  23470908.801 0
G20  22643825.564 0
G21  21422277.496 0
G25  22646481.832 0
G26  21470630.932 0
G29  20734105.957 0
G31  22439786.841 0
> 2018 03 15 18 49  7.0000000  0  9      
G04  20415576.977 0
G05  23342870.710 0
G16  23470845.725 0
G20  22643776.686 0
G21  21422247.078 0
G25  22646541.827 0
G26  21470590.233 0
G29  20734135.768 0
G31  22439830.733 0
> 2018 03 15 18 49  7.1000000  0  9      
G04  20415555.312 0
G05  23342885.019 0
G16  23470782.650 0
G20  22643727.808 0
G21  21422216.661 0
G25  22646601.821 0
G26  21470549.535 0
G29  20734165.580 0
G31  22439874.625 0
> 2018 03 15 18 49  7.2000000  0  9      
G04  20415533.647 0
G05  23342899.330 0
G16  23470719.576 0
G20  22643678.930 0
G21  21422186.244 0
G25  22646661.816 0
G26  21470508.838 0
G29  20734195.391 0
G31  22439918.519 0
> 2018 03 15 18 49  7.3000000  0  9      
G04  20415511.985 0
G05  23342913.642 0
G16  23470656.503 0
G20  22643630.053 0
G21  21422155.828 0
G25  22646721.812 0
G26  21470468.142 0
G29  20734225.204 0
G31  22439962.413 0
> 2018 03 15 18 49  7.4000000  0  9      
G04  20415490.323 0
G05  23342927.955 0
G16  23470593.431 0
G20  22643581.175 0
G21  21422125.413 0
G25  22646781.807 0
G26  21470427.448 0
G29  20734255.017 0
G31  22440006.308 0
> 2018 03 15 18 49  7.5000000  0  9      
G04  20415468.662 0
G05  23342942.270 0
G16  23470530.359 0
G20  22643532.299 0
G21  21422094.998 0
G25  22646841.803 0
G26  21470386.754 0
G29  20734284.831 0
G31  22440050.204 0
> 2018 03 15 18 49  7.6000000  0  9      
G04  20415447.003 0
G05  23342956.586 0
G16  23470467.288 0
G20  22643483.422 0
G21  21422064.585 0
G25  22646901.798 0
G26  21470346.062 0
G29  20734314.645 0
G31  22440094.101 0
> 2018 03 15 18 49  7.7000000  0  9      
G04  20415425.345 0
G05  23342970.902 0
G16  23470404.218 0
G20  22643434.546 0
G21  21422034.172 0
G25  22646961.794 0
G26  21470305.371 0
G29  20734344.459 0
G31  22440137.999 0
> 2018 03 15 18 49  7.8000000  0  9      
G04  20415403.688 0
G05  23342985.221 0
G16  23470341.148 0
G20  22643385.671 0
G21  21422003.759 0
G25  22647021.790 0
G26  21470264.681 0
G29  20734374.275 0
G31  22440181.897 0
> 2018 03 15 18 49  7.9000000  0  9      
G04  20415382.033 0
G05  23342999.540 0
G16  23470278.080 0
G20  22643336.795 0
G21  21421973.348 0
G25  22647081.786 0
G26  21470223.992 0
G29  20734404.090 0
G31  22440225.797 0
> 2018 03 15 18 49  8.0000000  0  9      
G04  20415360.378 0
G05  23343013.861 0
G16  23470215.012 0
G20  22643287.920 0
G21  21421942.937 0
G25  22647141.783 0
G26  21470183.304 0
G29  20734433.907 0
G31  22440269.697 0
> 2018 03 15 18 49  8.1000000  0  9      
G04  20415338.725 0
G05  23343028.182 0
G16  23470151.945 0
G20  22643239.045 0
G21  21421912.526 0
G25  22647201.779 0
G26  21470142.617 0
G29  20734463.724 0
G31  22440313.598 0
> 2018 03 15 18 49  8.2000000  0  9      
G04  20415317.073 0
G05  23343042.505 0
G16  23470088.879 0
G20  22643190.171 0
G21  21421882.117 0
G25  22647261.776 0
G26  21470101.931 0
G29  20734493.541 0
G31  22440357.500 0
> 2018 03 15 18 49  8.3000000  0  9      
G04  20415295.423 0
G05  23343056.830 0
G16  23470025.813 0
G20  22643141.297 0
G21  21421851.708 0
G25  22647321.773 0
G26  21470061.246 0
G29  20734523.359 0
G31  22440401.403 0
> 2018 03 15 18 49  8.4000000  0  9      
G04  20415273.773 0
G05  23343071.155 0
G16  23469962.748 0
G20  22643092.423 0
G21  21421821.300 0
G25  22647381.770 0
G26  21470020.563 0
G29  20734553.178 0
G31  22440445.307 0
> 2018 03 15 18 49  8.5000000  0  9      
G04  20415252.125 0
G05  23343085.482 0
G16  23469899.684 0
G20  22643043.550 0
G21  21421790.893 0
G25  22647441.767 0
G26  21469979.880 0
G29  20734582.997 0
G31  22440489.211 0
> 2018 03 15 18 49  8.6000000  0  9      
G04  20415230.478 0
G05  23343099.810 0
G16  23469836.621 0
G20  22642994.677 0
G21  21421760.486 0
G25  22647501.764 0
G26  21469939.199 0
G29  20734612.817 0
G31  22440533.117 0
> 2018 03 15 18 49  8.7000000  0  9      
G04  20415208.832 0
G05  23343114.140 0
G16  23469773.559 0
G20  22642945.804 0
G21  21421730.080 0
G25  22647561.762 0
G26  21469898.518 0
G29  20734642.637 0
G31  22440577.023 0
> 2018 03 15 18 49  8.8000000  0  9      
G04  20415187.187 0
G05  23343128.470 0
G16  23469710.497 0
G20  22642896.931 0
G21  21421699.675 0
G25  22647621.760 0
G26  21469857.839 0
G29  20734672.458 0
G31  22440620.930 0
> 2018 03 15 18 49  8.9000000  0  9      
G04  20415165.544 0
G05  23343142.802 0
G16  23469647.436 0
G20  22642848.059 0
G21  21421669.270 0
G25  22647681.758 0
G26  21469817.161 0
G29  20734702.279 0
G31  22440664.838 0
> 2018 03 15 18 49  9.0000000  0  9      
G04  20415143.902 0
G05  23343157.135 0
G16  23469584.376 0
G20  22642799.188 0
G21  21421638.866 0
G25  22647741.756 0
G26  21469776.484 0
G29  20734732.101 0
G31  22440708.747 0
> 2018 03 15 18 49  9.1000000  0  9      
G04  20415122.261 0
G05  23343171.469 0
G16  23469521.316 0
G20  22642750.316 0
G21  21421608.463 0
G25  22647801.754 0
G26  21469735.808 0
G29  20734761.924 0
G31  22440752.657 0
> 2018 03 15 18 49  9.2000000  0  9      
G04  20415100.621 0
G05  23343185.805 0
G16  23469458.258 0
G20  22642701.445 0
G21  21421578.061 0
G25  22647861.752 0
G26  21469695.133 0
G29  20734791.747 0
G31  22440796.568 0
> 2018 03 15 18 49  9.3000000  0  9      
G04  20415078.982 0
G05  23343200.142 0
G16  23469395.200 0
G20  22642652.575 0
G21  21421547.659 0
G25  22647921.751 0
G26  21469654.459 0
G29  20734821.571 0
G31  22440840.479 0
> 2018 03 15 18 49  9.4000000  0  9      
G04  20415057.345 0
G05  23343214.480 0
G16  23469332.143 0
G20  22642603.704 0
G21  21421517.258 0
G25  22647981.750 0
G26  21469613.786 0
G29  20734851.395 0
G31  22440884.391 0
> 2018 03 15 18 49  9.5000000  0  9      
G04  20415035.709 0
G05  23343228.820 0
G16  23469269.086 0
G20  22642554.834 0
G21  21421486.857 0
G25  22648041.749 0
G26  21469573.115 0
G29  20734881.220 0
G31  22440928.304 0
> 2018 03 15 18 49  9.6000000  0  9      
G04  20415014.074 0
G05  23343243.160 0
G16  23469206.031 0
G20  22642505.965 0
G21  21421456.458 0
G25  22648101.748 0
G26  21469532.444 0
G29  20734911.045 0
G31  22440972.218 0
> 2018 03 15 18 49  9.7000000  0  9      
G04  20414992.440 0
G05  23343257.502 0
G16  23469142.976 0
G20  22642457.095 0
G21  21421426.059 0
G25  22648161.747 0
G26  21469491.775 0
G29  20734940.871 0
G31  22441016.133 0
> 2018 03 15 18 49  9.8000000  0  9      
G04  20414970.808 0
G05  23343271.846 0
G16  23469079.922 0
G20  22642408.226 0
G21  21421395.661 0
G25  22648221.747 0
G26  21469451.106 0
G29  20734970.698 0
G31  22441060.048 0
> 2018 03 15 18 49  9.9000000  0  9      
G04  20414949.176 0
G05  23343286.190 0
G16  23469016.868 0
G20  22642359.358 0
G21  21421365.263 0
G25  22648281.746 0
G26  21469410.439 0
G29  20735000.525 0
G31  22441103.965 0
> 2018 03 15 18 49 10.0000000  0  9      
G04  20414927.546 0
G05  23343300.536 0
G16  23468953.816 0
G20  22642310.489 0
G21  21421334.866 0
G25  22648341.746 0
G26  21469369.773 0
G29  20735030.353 0
G31  22441147.882 0
> 2018 03 15 18 49 10.1000000  0  9      
G04  20414905.917 0
G05  23343314.883 0
G16  23468890.764 0
G20  22642261.622 0
G21  21421304.470 0
G25  22648401.746 0
G26  21469329.108 0
G29  20735060.181 0
G31  22441191.800 0
> 2018 03 15 18 49 10.2000000  0  9      
G04  20414884.290 0
G05  23343329.231 0
G16  23468827.713 0
G20  22642212.754 0
G21  21421274.074 0
G25  22648461.746 0
G26  21469288.444 0
G29  20735090.010 0
G31  22441235.719 0
> 2018 03 15 18 49 10.3000000  0  9      
G04  20414862.663 0
G05  23343343.581 0
G16  23468764.663 0
G20  22642163.887 0
G21  21421243.679 0
G25  22648521.747 0
G26  21469247.781 0
G29  20735119.839 0
G31  22441279.639 0
> 2018 03 15 18 49 10.4000000  0  9      
G04  20414841.038 0
G05  23343357.932 0
G16  23468701.613 0
G20  22642115.020 0
G21  21421213.285 0
G25  22648581.747 0
G26  21469207.119 0
G29  20735149.669 0
G31  22441323.559 0
> 2018 03 15 18 49 10.5000000  0  9      
G04  20414819.414 0
G05  23343372.284 0
G16  23468638.564 0
G20  22642066.153 0
G21  21421182.892 0
G25  22648641.748 0
G26  21469166.458 0
G29  20735179.500 0
G31  22441367.480 0
> 2018 03 15 18 49 10.6000000  0  9      
G04  20414797.791 0
G05  23343386.638 0
G16  23468575.516 0
G20  22642017.287 0
G21  21421152.499 0
G25  22648701.749 0
G26  21469125.798 0
G29  20735209.331 0
G31  22441411.403 0
> 2018 03 15 18 49 10.7000000  0  9      
G04  20414776.169 0
G05  23343400.993 0
G16  23468512.469 0
G20  22641968.421 0
G21  21421122.107 0
G25  22648761.750 0
G26  21469085.139 0
G29  20735239.163 0
G31  22441455.326 0
> 2018 03 15 18 49 10.8000000  0  9      
G04  20414754.549 0
G05  23343415.349 0
G16  23468449.423 0
G20  22641919.556 0
G21  21421091.715 0
G25  22648821.751 0
G26  21469044.482 0
G29  20735268.996 0
G31  22441499.249 0
> 2018 03 15 18 49 10.9000000  0  9      
G04  20414732.930 0
G05  23343429.706 0
G16  23468386.377 0
G20  22641870.691 0
G21  21421061.325 0
G25  22648881.752 0
G26  21469003.825 0
G29  20735298.829 0
G31  22441543.174 0
> 2018 03 15 18 49 11.0000000  0  9      
G04  20414711.312 0
G05  23343444.065 0
G16  23468323.332 0
G20  22641821.826 0
G21  21421030.934 0
G25  22648941.754 0
G26  21468963.170 0
G29  20735328.662 0
G31  22441587.099 0
> 2018 03 15 18 49 11.1000000  0  9      
G04  20414689.695 0
G05  23343458.425 0
G16  23468260.288 0
G20  22641772.962 0
G21  21421000.545 0
G25  22649001.756 0
G26  21468922.515 0
G29  20735358.496 0
G31  22441631.025 0
> 2018 03 15 18 49 11.2000000  0  9      
G04  20414668.079 0
G05  23343472.787 0
G16  23468197.244 0
G20  22641724.098 0
G21  21420970.156 0
G25  22649061.758 0
G26  21468881.862 0
G29  20735388.331 0
G31  22441674.952 0
> 2018 03 15 18 49 11.3000000  0  9      
G04  20414646.465 0
G05  23343487.149 0
G16  23468134.201 0
G20  22641675.234 0
G21  21420939.768 0
G25  22649121.760 0
G26  21468841.210 0
G29  20735418.167 0
G31  22441718.880 0
> 2018 03 15 18 49 11.4000000  0  9      
G04  20414624.852 0
G05  23343501.513 0
G16  23468071.159 0
G20  22641626.371 0
G21  21420909.381 0
G25  22649181.762 0
G26  21468800.558 0
G29  20735448.003 0
G31  22441762.809 0
> 2018 03 15 18 49 11.5000000  0  9      
G04  20414603.240 0
G05  23343515.879 0
G16  23468008.118 0
G20  22641577.508 0
G21  21420878.994 0
G25  22649241.765 0
G26  21468759.908 0
G29  20735477.839 0
G31  22441806.738 0
> 2018 03 15 18 49 11.6000000  0  9      
G04  20414581.629 0
G05  23343530.245 0
G16  23467945.077 0
G20  22641528.645 0
G21  21420848.608 0
G25  22649301.767 0
G26  21468719.259 0
G29  20735507.677 0
G31  22441850.668 0
> 2018 03 15 18 49 11.7000000  0  9      
G04  20414560.019 0
G05  23343544.613 0
G16  23467882.038 0
G20  22641479.783 0
G21  21420818.223 0
G25  22649361.770 0
G26  21468678.611 0
G29  20735537.514 0
G31  22441894.599 0
> 2018 03 15 18 49 11.8000000  0  9      
G04  20414538.411 0
G05  23343558.983 0
G16  23467818.998 0
G20  22641430.921 0
G21  21420787.838 0
G25  22649421.773 0
G26  21468637.964 0
G29  20735567.353 0
G31  22441938.531 0
> 2018 03 15 18 49 11.9000000  0  9      
G04  20414516.803 0
G05  23343573.353 0
G16  23467755.960 0
G20  22641382.060 0
G21  21420757.454 0
G25  22649481.777 0
G26  21468597.318 0
G29  20735597.192 0
G31  22441982.463 0
> 2018 03 15 18 49 12.0000000  0  9      
G04  20414495.197 0
G05  23343587.725 0
G16  23467692.922 0
G20  22641333.199 0
G21  21420727.071 0
G25  22649541.780 0
G26  21468556.674 0
G29  20735627.032 0
G31  22442026.397 0
> 2018 03 15 18 49 12.1000000  0  9      
G04  20414473.593 0
G05  23343602.099 0
G16  23467629.886 0
G20  22641284.338 0
G21  21420696.688 0
G25  22649601.784 0
G26  21468516.030 0
G29  20735656.872 0
G31  22442070.331 0
> 2018 03 15 18 49 12.2000000  0  9      
G04  20414451.989 0
G05  23343616.473 0
G16  23467566.850 0
G20  22641235.478 0
G21  21420666.306 0
G25  22649661.787 0
G26  21468475.387 0
G29  20735686.713 0
G31  22442114.266 0
> 2018 03 15 18 49 12.3000000  0  9      
G04  20414430.387 0
G05  23343630.849 0
G16  23467503.814 0
G20  22641186.618 0
G21  21420635.925 0
G25  22649721.791 0
G26  21468434.746 0
G29  20735716.554 0
G31  22442158.201 0
> 2018 03 15 18 49 12.4000000  0  9      
G04  20414408.785 0
G05  23343645.227 0
G16  23467440.779 0
G20  22641137.758 0
G21  21420605.544 0
G25  22649781.796 0
G26  21468394.105 0
G29  20735746.396 0
G31  22442202.138 0
> 2018 03 15 18 49 12.5000000  0  9      
G04  20414387.185 0
G05  23343659.605 0
G16  23467377.746 0
G20  22641088.899 0
G21  21420575.164 0
G25  22649841.800 0
G26  21468353.465 0
G29  20735776.239 0
G31  22442246.075 0
> 2018 03 15 18 49 12.6000000  0  9      
G04  20414365.586 0
G05  23343673.985 0
G16  23467314.712 0
G20  22641040.040 0
G21  21420544.785 0
G25  22649901.804 0
G26  21468312.827 0
G29  20735806.082 0
G31  22442290.013 0
> 2018 03 15 18 49 12.7000000  0  9      
G04  20414343.989 0
G05  23343688.366 0
G16  23467251.680 0
G20  22640991.181 0
G21  21420514.406 0
G25  22649961.809 0
G26  21468272.190 0
G29  20735835.926 0
G31  22442333.952 0
> 2018 03 15 18 49 12.8000000  0  9      
G04  20414322.392 0
G05  23343702.749 0
G16  23467188.648 0
G20  22640942.323 0
G21  21420484.028 0
G25  22650021.814 0
G26  21468231.553 0
G29  20735865.771 0
G31  22442377.891 0
> 2018 03 15 18 49 12.9000000  0  9      
G04  20414300.797 0
G05  23343717.133 0
G16  23467125.617 0
G20  22640893.466 0
G21  21420453.651 0
G25  22650081.819 0
G26  21468190.918 0
G29  20735895.616 0
G31  22442421.832 0
> 2018 03 15 18 49 13.0000000  0  9      
G04  20414279.203 0
G05  23343731.519 0
G16  23467062.587 0
G20  22640844.608 0
G21  21420423.274 0
G25  22650141.825 0
G26  21468150.284 0
G29  20735925.462 0
G31  22442465.773 0
> 2018 03 15 18 49 13.1000000  0  9      
G04  20414257.610 0
G05  23343745.905 0
G16  23466999.557 0
G20  22640795.751 0
G21  21420392.898 0
G25  22650201.830 0
G26  21468109.651 0
G29  20735955.308 0
G31  22442509.714 0
> 2018 03 15 18 49 13.2000000  0  9      
G04  20414236.018 0
G05  23343760.293 0
G16  23466936.528 0
G20  22640746.895 0
G21  21420362.522 0
G25  22650261.836 0
G26  21468069.018 0
G29  20735985.155 0
G31  22442553.657 0
> 2018 03 15 18 49 13.3000000  0  9      
G04  20414214.428 0
G05  23343774.683 0
G16  23466873.500 0
G20  22640698.038 0
G21  21420332.148 0
G25  22650321.842 0
G26  21468028.387 0
G29  20736015.003 0
G31  22442597.600 0
> 2018 03 15 18 49 13.4000000  0  9      
G04  20414192.839 0
G05  23343789.074 0
G16  23466810.473 0
G20  22640649.183 0
G21  21420301.774 0
G25  22650381.848 0
G26  21467987.757 0
G29  20736044.851 0
G31  22442641.544 0
> 2018 03 15 18 49 13.5000000  0  9      
G04  20414171.250 0
G05  23343803.466 0
G16  23466747.446 0
G20  22640600.327 0
G21  21420271.400 0
G25  22650441.854 0
G26  21467947.128 0
G29  20736074.700 0
G31  22442685.489 0
> 2018 03 15 18 49 13.6000000  0  9      
G04  20414149.663 0
G05  23343817.859 0
G16  23466684.420 0
G20  22640551.472 0
G21  21420241.028 0
G25  22650501.860 0
G26  21467906.500 0
G29  20736104.549 0
G31  22442729.435 0
> 2018 03 15 18 49 13.7000000  0  9      
G04  20414128.078 0
G05  23343832.254 0
G16  23466621.395 0
G20  22640502.617 0
G21  21420210.655 0
G25  22650561.867 0
G26  21467865.874 0
G29  20736134.399 0
G31  22442773.381 0
> 2018 03 15 18 49 13.8000000  0  9      
G04  20414106.493 0
G05  23343846.651 0
G16  23466558.371 0
G20  22640453.763 0
G21  21420180.284 0
G25  22650621.874 0
G26  21467825.248 0
G29  20736164.250 0
G31  22442817.328 0
> 2018 03 15 18 49 13.9000000  0  9      
G04  20414084.910 0
G05  23343861.048 0
G16  23466495.347 0
G20  22640404.909 0
G21  21420149.913 0
G25  22650681.881 0
G26  21467784.623 0
G29  20736194.102 0
G31  22442861.276 0
> 2018 03 15 18 49 14.0000000  0  9      
G04  20414063.328 0
G05  23343875.447 0
G16  23466432.324 0
G20  22640356.056 0
G21  21420119.543 0
G25  22650741.888 0
G26  21467743.999 0
G29  20736223.954 0
G31  22442905.225 0
> 2018 03 15 18 49 14.1000000  0  9      
G04  20414041.747 0
G05  23343889.848 0
G16  23466369.301 0
G20  22640307.203 0
G21  21420089.174 0
G25  22650801.896 0
G26  21467703.377 0
G29  20736253.806 0
G31  22442949.174 0
> 2018 03 15 18 49 14.2000000  0  9      
G04  20414020.167 0
G05  23343904.250 0
G16  23466306.280 0
G20  22640258.350 0
G21  21420058.805 0
G25  22650861.903 0
G26  21467662.755 0
G29  20736283.660 0
G31  22442993.124 0
> 2018 03 15 18 49 14.3000000  0  9      
G04  20413998.588 0
G05  23343918.653 0
G16  23466243.259 0
G20  22640209.498 0
G21  21420028.436 0
G25  22650921.911 0
G26  21467622.134 0
G29  20736313.514 0
G31  22443037.075 0
> 2018 03 15 18 49 14.4000000  0  9      
G04  20413977.011 0
G05  23343933.057 0
G16  23466180.239 0
G20  22640160.646 0
G21  21419998.069 0
G25  22650981.919 0
G26  21467581.515 0
G29  20736343.368 0
G31  22443081.027 0
> 2018 03 15 18 49 14.5000000  0  9      
G04  20413955.434 0
G05  23343947.463 0
G16  23466117.219 0
G20  22640111.794 0
G21  21419967.702 0
G25  22651041.928 0
G26  21467540.896 0
G29  20736373.223 0
G31  22443124.979 0
> 2018 03 15 18 49 14.6000000  0  9      
G04  20413933.859 0
G05  23343961.870 0
G16  23466054.200 0
G20  22640062.943 0
G21  21419937.336 0
G25  22651101.936 0
G26  21467500.279 0
G29  20736403.079 0
G31  22443168.932 0
> 2018 03 15 18 49 14.7000000  0  9      
G04  20413912.285 0
G05  23343976.279 0
G16  23465991.182 0
G20  22640014.092 0
G21  21419906.970 0
G25  22651161.945 0
G26  21467459.662 0
G29  20736432.936 0
G31  22443212.886 0
> 2018 03 15 18 49 14.8000000  0  9      
G04  20413890.713 0
G05  23343990.689 0
G16  23465928.165 0
G20  22639965.242 0
G21  21419876.605 0
G25  22651221.954 0
G26  21467419.047 0
G29  20736462.793 0
G31  22443256.840 0
> 2018 03 15 18 49 14.9000000  0  9      
G04  20413869.141 0
G05  23344005.101 0
G16  23465865.148 0
G20  22639916.392 0
G21  21419846.241 0
G25  22651281.963 0
G26  21467378.432 0
G29  20736492.651 0
G31  22443300.795 0
> 2018 03 15 18 49 15.0000000  0  9      
G04  20413847.571 0
G05  23344019.514 0
G16  23465802.132 0
G20  22639867.543 0
G21  21419815.877 0
G25  22651341.972 0
G26  21467337.819 0
G29  20736522.509 0
G31  22443344.751 0
> 2018 03 15 18 49 15.1000000  0  9      
G04  20413826.001 0
G05  23344033.928 0
G16  23465739.117 0
G20  22639818.694 0
G21  21419785.514 0
G25  22651401.982 0
G26  21467297.207 0
G29  20736552.368 0
G31  22443388.708 0
> 2018 03 15 18 49 15.2000000  0  9      
G04  20413804.433 0
G05  23344048.344 0
G16  23465676.102 0
G20  22639769.845 0
G21  21419755.152 0
G25  22651461.991 0
G26  21467256.595 0
G29  20736582.228 0
G31  22443432.665 0
> 2018 03 15 18 49 15.3000000  0  9      
G04  20413782.867 0
G05  23344062.761 0
G16  23465613.088 0
G20  22639720.997 0
G21  21419724.790 0
G25  22651522.001 0
G26  21467215.985 0
G29  20736612.088 0
G31  22443476.623 0
> 2018 03 15 18 49 15.4000000  0  9      
G04  20413761.301 0
G05  23344077.179 0
G16  23465550.075 0
