     2.11           OBSERVATION DATA    MIXED               RINEX VERSION / TYPE
GNSS Simulator PR                       20180423 113936 UTC PGM / RUN BY / DATE
C1 modelled using GNSSSIM                                   COMMENT
https://github.com/GNSSSim/GNSSSimulator                    COMMENT
Header contents might be invalid. Only C1 is important.     COMMENT
MOBS                                                        MARKER NAME
50182M001                                                   MARKER NUMBER
geodesy@ga.gov.au   ---                                     OBSERVER / AGENCY
3007645             SEPT POLARX4TR      2.9.6               REC # / TYPE / VERS
CR20020709          ASH701945C_M    NONE                    ANT # / TYPE
 -4130636.5890  2894953.1210 -3890530.4420                  APPROX POSITION XYZ
        0.0000        0.0000        0.0000                  ANTENNA: DELTA H/E/N
     1    C1                                                # / TYPES OF OBSERV
     1     1                                                WAVELENGTH FACT L1/2
    30.000                                                  INTERVAL
  2017     9    10     0     0    0.0000000     GPS         TIME OF FIRST OBS
    18                                                      LEAP SECONDS
                                                            END OF HEADER
 17  9 10  1 11 40.0000000  0 22G03G04G06G07G09G16G22G23G26
  21735750.270 0
  24872349.093 0
  24197452.275 0
  21643653.775 0
  20854922.076 0
  21657556.562 0
  23712438.666 0
  20396729.181 0
  23201243.062 0
 17  9 10  1 11 46.0000000  0 22G03G04G06G07G09G16G22G23G26
  21739049.421 0
  24870008.081 0
  24199118.727 0
  21641099.103 0
  20853151.807 0
  21658064.583 0
  23716655.452 0
  20397158.434 0
  23203954.242 0
 17  9 10  1 11 52.0000000  0 22G03G04G06G07G09G16G22G23G26
  21742271.464 0
  24867725.873 0
  24200730.791 0
  21638459.025 0
  20851404.223 0
  21658652.731 0
  23720790.398 0
  20397630.741 0
  23206787.108 0
 17  9 10  1 11 58.0000000  0 22G03G04G06G07G09G16G22G23G26
  21745520.773 0
  24865461.004 0
  24202336.374 0
  21635823.284 0
  20849646.147 0
  21659238.459 0
  23724956.014 0
  20398106.261 0
  23209612.227 0
 17  9 10  1 12  4.0000000  0 22G03G04G06G07G09G16G22G23G26
  21748808.759 0
  24863209.625 0
  24203933.479 0
  21633191.728 0
  20847871.996 0
  21659830.862 0
  23729163.535 0
  20398572.032 0
  23212425.090 0
 17  9 10  1 12 10.0000000  0 22G03G04G06G07G09G16G22G23G26
  21752105.999 0
  24860965.028 0
  24205525.123 0
  21630571.798 0
  20846090.167 0
  21660424.874 0
  23733385.803 0
  20399035.760 0
  23215219.571 0
 17  9 10  1 12 16.0000000  0 22G03G04G06G07G09G16G22G23G26
  21755403.234 0
  24858717.288 0
  24207127.270 0
  21627952.075 0
  20844310.827 0
  21661018.254 0
  23737598.261 0
  20399503.258 0
  23218026.336 0
 17  9 10  1 12 22.0000000  0 22G03G04G06G07G09G16G22G23G26
  21758282.187 0
  24856302.069 0
  24208905.777 0
  21625282.033 0
  20842808.743 0
  21661663.173 0
  23741275.495 0
  20400072.691 0
  23221114.157 0
 17  9 10  1 12 28.0000000  0 22G03G04G06G07G09G16G22G23G26
  21761589.039 0
  24854059.648 0
  24210504.782 0
  21622671.295 0
  20841027.021 0
  21662266.973 0
  23745504.660 0
  20400549.198 0
  23223927.440 0
 17  9 10  1 12 34.0000000  0 22G03G04G06G07G09G16G22G23G26
  21764902.964 0
  24851819.599 0
  24212108.409 0
  21620055.966 0
  20839252.089 0
  21662882.299 0
  23749736.499 0
  20401021.734 0
  23226739.518 0
 17  9 10  1 12 40.0000000  0 22G03G04G06G07G09G16G22G23G26
  21768213.077 0
  24849584.250 0
  24213715.541 0
  21617443.379 0
  20837480.055 0
  21663494.333 0
  23753951.895 0
  20401500.914 0
  23229563.980 0
 17  9 10  1 12 46.0000000  0 22G03G04G06G07G09G16G22G23G26
  21771518.089 0
  24847356.440 0
  24215319.035 0
  21614823.994 0
  20835706.795 0
  21664125.030 0
  23758166.281 0
  20401984.377 0
  23232400.546 0
 17  9 10  1 12 52.0000000  0 22G03G04G06G07G09G16G22G23G26
  21774843.110 0
  24845125.789 0
  24216932.953 0
  21612222.448 0
  20833930.268 0
  21664747.807 0
  23762411.114 0
  20402465.381 0
  23235215.582 0
 17  9 10  1 12 58.0000000  0 22G03G04G06G07G09G16G22G23G26
  21778176.797 0
  24842897.112 0
  24218545.470 0
  21609619.612 0
  20832160.002 0
  21665373.358 0
  23766651.188 0
  20402948.008 0
  23238032.834 0
 17  9 10  1 13  4.0000000  0 22G03G04G06G07G09G16G22G23G26
  21781503.656 0
  24840673.953 0
  24220163.361 0
  21607022.039 0
  20830381.753 0
  21666002.651 0
  23770884.492 0
  20403435.367 0
  23240858.306 0
 17  9 10  1 13 10.0000000  0 22G03G04G06G07G09G16G22G23G26
  21784843.781 0
  24838443.176 0
  24221783.726 0
  21604427.481 0
  20828612.364 0
  21666641.734 0
  23775127.344 0
  20403923.435 0
  23243688.834 0
 17  9 10  1 13 16.0000000  0 22G03G04G06G07G09G16G22G23G26
  21788177.934 0
  24836218.019 0
  24223405.758 0
  21601831.339 0
  20826843.302 0
  21667276.105 0
  23779369.913 0
  20404417.409 0
  23246515.512 0
 17  9 10  1 13 22.0000000  0 22G03G04G06G07G09G16G22G23G26
  21791520.427 0
  24833991.233 0
  24225030.529 0
  21599240.598 0
  20825075.710 0
  21667922.608 0
  23783614.887 0
  20404910.526 0
  23249355.361 0
 17  9 10  1 13 28.0000000  0 22G03G04G06G07G09G16G22G23G26
  21794863.005 0
  24831771.675 0
  24226663.276 0
  21596652.446 0
  20823310.525 0
  21668571.066 0
  23787857.814 0
  20405406.281 0
  23252186.892 0
 17  9 10  1 13 34.0000000  0 22G03G04G06G07G09G16G22G23G26
  21798208.239 0
  24829556.120 0
  24228292.233 0
  21594067.521 0
  20821546.254 0
  21669224.284 0
  23792103.072 0
  20405900.610 0
  23255030.124 0
 17  9 10  1 13 40.0000000  0 22G03G04G06G07G09G16G22G23G26
  21801551.785 0
  24827373.802 0
  24229890.800 0
  21591446.846 0
  20819775.731 0
  21669916.727 0
  23796344.532 0
  20406413.297 0
  23257908.314 0
 17  9 10  1 13 46.0000000  0 22G03G04G06G07G09G16G22G23G26
  21804882.499 0
  24825466.774 0
  24231222.585 0
  21588620.013 0
  20817934.158 0
  21670787.882 0
  23800628.505 0
  20407001.098 0
  23261000.956 0
 17  9 10  1 13 52.0000000  0 22G03G04G06G07G09G16G22G23G26
  21808234.942 0
  24823313.135 0
  24232807.565 0
  21585989.012 0
  20816155.204 0
  21671494.938 0
  23804880.577 0
  20407530.689 0
  23263899.370 0
 17  9 10  1 13 58.0000000  0 22G03G04G06G07G09G16G22G23G26
  21811591.192 0
  24821126.206 0
  24234419.281 0
  21583389.995 0
  20814389.393 0
  21672188.050 0
  23809129.824 0
  20408044.771 0
  23266772.823 0
 17  9 10  1 14  4.0000000  0 22G03G04G06G07G09G16G22G23G26
  21814934.007 0
  24818952.838 0
  24236035.602 0
  21580784.122 0
  20812637.799 0
  21672887.367 0
  23813370.652 0
  20408566.585 0
  23269665.517 0
 17  9 10  1 14 10.0000000  0 22G03G04G06G07G09G16G22G23G26
  21818285.072 0
  24816776.268 0
  24237653.255 0
  21578184.489 0
  20810878.415 0
  21673598.442 0
  23817609.729 0
  20409092.525 0
  23272556.891 0
 17  9 10  1 14 16.0000000  0 22G03G04G06G07G09G16G22G23G26
  21821633.537 0
  24814596.577 0
  24239277.077 0
  21575585.463 0
  20809127.191 0
  21674301.944 0
  23821841.961 0
  20409622.536 0
  23275451.844 0
 17  9 10  1 14 22.0000000  0 22G03G04G06G07G09G16G22G23G26
  21824992.105 0
  24812408.043 0
  24240918.332 0
  21573000.437 0
  20807375.522 0
  21675009.129 0
  23826085.929 0
  20410151.712 0
  23278345.653 0
 17  9 10  1 14 28.0000000  0 22G03G04G06G07G09G16G22G23G26
  21828345.542 0
  24810218.628 0
  24242558.640 0
  21570417.456 0
  20805628.476 0
  21675718.373 0
  23830318.621 0
  20410681.588 0
  23281234.784 0
 17  9 10  1 14 34.0000000  0 22G03G04G06G07G09G16G22G23G26
  21831701.711 0
  24808033.295 0
  24244207.239 0
  21567837.056 0
  20803888.069 0
  21676429.755 0
  23834554.438 0
  20411214.354 0
  23284132.392 0
 17  9 10  1 14 40.0000000  0 22G03G04G06G07G09G16G22G23G26
  21835062.128 0
  24805843.836 0
  24245861.122 0
  21565262.893 0
  20802149.124 0
  21677141.917 0
  23838785.973 0
  20411745.832 0
  23287033.934 0
 17  9 10  1 14 46.0000000  0 22G03G04G06G07G09G16G22G23G26
  21838401.514 0
  24803667.935 0
  24247503.537 0
  21562677.987 0
  20800417.103 0
  21677878.295 0
  23842998.273 0
  20412290.789 0
  23289956.590 0
 17  9 10  1 14 52.0000000  0 22G03G04G06G07G09G16G22G23G26
  21841767.687 0
  24801481.962 0
  24249164.920 0
  21560107.284 0
  20798682.741 0
  21678601.549 0
  23847234.344 0
  20412833.165 0
  23292863.293 0
 17  9 10  1 14 58.0000000  0 22G03G04G06G07G09G16G22G23G26
  21845148.242 0
  24799288.877 0
  24250830.716 0
  21557546.438 0
  20796943.762 0
  21679319.824 0
  23851482.704 0
  20413370.175 0
  23295756.242 0
 17  9 10  1 15  4.0000000  0 22G03G04G06G07G09G16G22G23G26
  21848525.608 0
  24797107.936 0
  24252495.464 0
  21554990.102 0
  20795203.172 0
  21680053.212 0
  23855733.101 0
  20413916.432 0
  23298653.876 0
 17  9 10  1 15 10.0000000  0 22G03G04G06G07G09G16G22G23G26
  21851918.195 0
  24794920.540 0
  24254176.144 0
  21552438.708 0
  20793467.649 0
  21680776.379 0
  23859990.976 0
  20414451.732 0
  23301549.539 0
 17  9 10  1 15 16.0000000  0 22G03G04G06G07G09G16G22G23G26G30
  21855305.714 0
  24792741.984 0
  24255848.438 0
  21549884.514 0
  20791729.119 0
  21681505.370 0
  23864246.425 0
  20414991.173 0
  23304447.050 0
  24576215.854 0
 17  9 10  1 15 22.0000000  0 22G03G04G06G07G09G16G22G23G26G30
  21858702.005 0
  24790552.782 0
  24257528.871 0
  21547341.899 0
  20790001.644 0
  21682241.987 0
  23868505.476 0
  20415539.888 0
  23307340.451 0
  24572715.700 0
 17  9 10  1 15 28.0000000  0 22G03G04G06G07G09G16G22G23G26G30
  21862098.532 0
  24788367.616 0
  24259217.682 0
  21544805.626 0
  20788266.479 0
  21682976.228 0
  23872765.338 0
  20416089.696 0
  23310238.268 0
  24569208.680 0
 17  9 10  1 15 34.0000000  0 22G03G04G06G07G09G16G22G23G26G30
  21865495.935 0
  24786187.652 0
  24260904.032 0
  21542264.223 0
  20786540.651 0
  21683717.695 0
  23877015.741 0
  20416643.801 0
  23313146.304 0
  24565703.849 0
 17  9 10  1 15 40.0000000  0 22G03G04G06G07G09G16G22G23G26G30
  21868894.956 0
  24784013.281 0
  24262591.750 0
  21539724.376 0
  20784812.467 0
  21684472.112 0
  23881274.626 0
  20417195.266 0
  23316061.521 0
  24562190.422 0
 17  9 10  1 15 46.0000000  0 22G03G04G06G07G09G16G22G23G26G30
  21872270.842 0
  24781880.901 0
  24264239.395 0
  21537140.251 0
  20783091.536 0
  21685266.695 0
  23885513.481 0
  20417770.561 0
  23319032.674 0
  24558626.353 0
 17  9 10  1 15 52.0000000  0 22G03G04G06G07G09G16G22G23G26G30
  21875673.137 0
  24779718.336 0
  24265922.765 0
  21534598.996 0
  20781364.717 0
  21686028.233 0
  23889760.149 0
  20418332.193 0
  23321959.326 0
  24555107.751 0
 17  9 10  1 15 58.0000000  0 22G03G04G06G07G09G16G22G23G26G30
  21879075.506 0
  24777561.270 0
  24267604.179 0
  21532055.531 0
  20779642.257 0
  21686806.005 0
  23894014.170 0
  20418902.771 0
  23324897.080 0
  24551586.745 0
 17  9 10  1 16  4.0000000  0 22G03G04G06G07G09G16G22G23G26G30
  21882477.935 0
  24775408.916 0
  24269286.598 0
  21529508.973 0
  20777917.114 0
  21687580.975 0
  23898276.388 0
  20419478.062 0
  23327835.333 0
  24548063.103 0
 17  9 10  1 16 10.0000000  0 22G03G04G06G07G09G16G22G23G26G30
  21885889.090 0
  24773261.211 0
  24270974.022 0
  21526969.818 0
  20776197.331 0
  21688365.439 0
  23902537.466 0
  20420040.644 0
  23330771.955 0
  24544545.702 0
 17  9 10  1 16 16.0000000  0 22G03G04G06G07G09G16G22G23G26G30
  21889301.440 0
  24771111.377 0
  24272658.051 0
  21524429.497 0
  20774473.763 0
  21689154.899 0
  23906800.181 0
  20420619.406 0
  23333714.869 0
  24541026.001 0
 17  9 10  1 16 22.0000000  0 22G03G04G06G07G09G16G22G23G26G30
  21892722.692 0
  24768955.604 0
  24274357.253 0
  21521901.514 0
  20772755.199 0
  21689942.600 0
  23911063.836 0
  20421192.933 0
  23336658.293 0
  24537518.383 0
 17  9 10  1 16 28.0000000  0 22G03G04G06G07G09G16G22G23G26G30
  21896148.225 0
  24766841.073 0
  24276023.731 0
  21519347.586 0
  20771026.328 0
  21690750.941 0
  23915338.016 0
  20421781.344 0
  23339623.426 0
  24533978.768 0
 17  9 10  1 16 34.0000000  0 22G03G04G06G07G09G16G22G23G26G30
  21899576.250 0
  24764688.559 0
  24277726.978 0
  21516823.102 0
  20769311.843 0
  21691544.644 0
  23919610.412 0
  20422358.661 0
  23342565.923 0
  24530470.612 0
 17  9 10  1 16 40.0000000  0 22G03G04G06G07G09G16G22G23G26G30
  21903014.958 0
  24762563.893 0
  24279411.065 0
  21514283.928 0
  20767583.996 0
  21692356.505 0
  23923891.612 0
  20422946.678 0
  23345517.761 0
  24526952.587 0
 17  9 10  1 16 46.0000000  0 22G03G04G06G07G09G16G22G23G26G30
  21906465.685 0
  24760479.316 0
  24281049.049 0
  21511723.746 0
  20765847.561 0
  21693198.865 0
  23928193.007 0
  20423537.554 0
  23348491.611 0
  24523399.805 0
 17  9 10  1 16 52.0000000  0 22G03G04G06G07G09G16G22G23G26G30
  21909906.459 0
  24758349.756 0
  24282751.566 0
  21509195.949 0
  20764128.573 0
  21694011.367 0
  23932480.618 0
  20424128.437 0
  23351451.741 0
  24519891.201 0
 17  9 10  1 16 58.0000000  0 22G03G04G06G07G09G16G22G23G26G30
  21913350.327 0
  24756201.444 0
  24284470.267 0
  21506689.913 0
  20762420.734 0
  21694818.740 0
  23936750.084 0
  20424717.936 0
  23354404.980 0
  24516395.473 0
 17  9 10  1 17  4.0000000  0 22G03G04G06G07G09G16G22G23G26G30
  21916897.404 0
  24754419.378 0
  24285823.963 0
  21503936.844 0
  20760560.502 0
  21695832.816 0
  23941221.958 0
  20425377.648 0
  23357520.582 0
  24512623.436 0
 17  9 10  1 17 10.0000000  0 22G03G04G06G07G09G16G22G23G26G30
  21920385.260 0
  24752414.163 0
  24287415.366 0
  21501343.120 0
  20758798.750 0
  21696728.390 0
  23945569.777 0
  20425999.199 0
  23360544.676 0
  24509022.384 0
 17  9 10  1 17 16.0000000  0 22G03G04G06G07G09G16G22G23G26G30
  21923912.858 0
  24750598.730 0
  24288815.537 0
  21498615.436 0
  20756960.404 0
  21697736.519 0
  23950005.088 0
  20426658.986 0
  23363663.954 0
  24505277.180 0
 17  9 10  1 17 22.0000000  0 22G03G04G06G07G09G16G22G23G26G30
  21927517.900 0
  24749134.743 0
  24289873.386 0
  21495649.617 0
  20755001.310 0
  21698957.704 0
  23954593.583 0
  20427402.448 0
  23366984.638 0
  24501233.182 0
 17  9 10  1 17 28.0000000  0 22G03G04G06G07G09G16G22G23G26G30
  21931017.770 0
  24747186.523 0
  24291416.695 0
  21493020.603 0
  20753226.366 0
  21699897.203 0
  23958961.774 0
  20428047.501 0
  23370049.225 0
  24497590.556 0
 17  9 10  1 17 34.0000000  0 22G03G04G06G07G09G16G22G23G26G30
  21934498.265 0
  24745128.017 0
  24293075.703 0
  21490480.183 0
  20751493.854 0
  21700768.999 0
  23963286.146 0
  20428666.213 0
  23373046.447 0
  24494040.644 0
 17  9 10  1 17 40.0000000  0 22G03G04G06G07G09G16G22G23G26G30
  21937997.464 0
  24743118.800 0
  24294687.251 0
  21487903.349 0
  20749749.676 0
  21701679.903 0
  23967631.148 0
  20429298.769 0
  23376073.601 0
  24490463.633 0
 17  9 10  1 17 46.0000000  0 22G03G04G06G07G09G16G22G23G26G30
  21941494.786 0
  24741098.527 0
  24296316.919 0
  21485339.548 0
  20748006.934 0
  21702578.433 0
  23971979.171 0
  20429928.257 0
  23379090.013 0
  24486892.298 0
 17  9 10  1 17 52.0000000  0 22G03G04G06G07G09G16G22G23G26G30
  21945026.341 0
  24739140.099 0
  24297888.473 0
  21482741.172 0
  20746235.331 0
  21703517.977 0
  23976373.416 0
  20430567.666 0
  23382134.893 0
  24483280.978 0
 17  9 10  1 17 58.0000000  0 22G03G04G06G07G09G16G22G23G26G30
  21948556.835 0
  24737158.863 0
  24299487.783 0
  21480165.505 0
  20744474.682 0
  21704442.212 0
  23980754.330 0
  20431210.959 0
  23385161.056 0
  24479698.179 0
 17  9 10  1 18  4.0000000  0 22G03G04G06G07G09G16G22G23G26G30
  21952076.086 0
  24735133.469 0
  24301134.020 0
  21477623.316 0
  20742740.316 0
  21705346.441 0
  23985115.419 0
  20431842.945 0
  23388171.444 0
  24476148.370 0
 17  9 10  1 18 10.0000000  0 22G03G04G06G07G09G16G22G23G26G30
  21955607.115 0
  24733114.609 0
  24302776.580 0
  21475076.391 0
  20740989.779 0
  21706256.897 0
  23989480.964 0
  20432477.870 0
  23391185.829 0
  24472597.811 0
 17  9 10  1 18 16.0000000  0 22G03G04G06G07G09G16G22G23G26G30
  21959126.598 0
  24731069.734 0
  24304456.583 0
  21472554.044 0
  20739266.630 0
  21707156.308 0
  23993834.710 0
  20433112.261 0
  23394187.898 0
  24469069.444 0
 17  9 10  1 18 22.0000000  0 22G03G04G06G07G09G16G22G23G26G30
  21963160.201 0
  24729986.044 0
  24305170.877 0
  21469465.193 0
  20737033.224 0
  21708503.132 0
  23998975.451 0
  20433881.685 0
  23397427.089 0
  24464954.703 0
 17  9 10  1 18 28.0000000  0 22G03G04G06G07G09G16G22G23G26G30
  21966663.032 0
  24727886.494 0
  24306913.827 0
  21466981.897 0
  20735339.850 0
  21709380.493 0
  24003288.323 0
  20434512.906 0
  23400420.395 0
  24461468.613 0
 17  9 10  1 18 34.0000000  0 22G03G04G06G07G09G16G22G23G26G30
  21970315.195 0
  24726065.964 0
  24308369.967 0
  21464341.806 0
  20733500.532 0
  21710395.520 0
  24007824.424 0
  20435184.087 0
  23403488.675 0
  24457807.905 0
 17  9 10  1 18 40.0000000  0 22G03G04G06G07G09G16G22G23G26G30
  21973866.888 0
  24724080.881 0
  24310012.221 0
  21461791.545 0
  20731756.852 0
  21711335.051 0
  24012212.246 0
  20435837.546 0
  23406512.625 0
  24454248.607 0
 17  9 10  1 18 46.0000000  0 22G03G04G06G07G09G16G22G23G26G30
  21977409.740 0
  24722089.185 0
  24311659.092 0
  21459255.428 0
  20730027.628 0
  21712279.311 0
  24016591.588 0
  20436500.852 0
  23409548.080 0
  24450692.931 0
 17  9 10  1 18 52.0000000  0 22G03G04G06G07G09G16G22G23G26G30
  21980982.595 0
  24720164.740 0
  24313243.577 0
  21456674.970 0
  20728264.322 0
  21713257.739 0
  24021005.420 0
  20437167.373 0
  23412619.678 0
  24447089.733 0
 17  9 10  1 18 58.0000000  0 22G03G04G06G07G09G16G22G23G26G30
  21984544.963 0
  24718231.117 0
  24314837.252 0
  21454099.897 0
  20726513.307 0
  21714244.690 0
  24025409.722 0
  20437849.470 0
  23415694.770 0
  24443485.185 0
 17  9 10  1 19  4.0000000  0 22G03G04G06G07G09G16G22G23G26G30
  21988093.849 0
  24716272.685 0
  24316467.245 0
  21451542.171 0
  20724782.708 0
  21715224.604 0
  24029787.871 0
  20438521.376 0
  23418771.885 0
  24439901.357 0
 17  9 10  1 19 10.0000000  0 22G03G04G06G07G09G16G22G23G26G30
  21991637.775 0
  24714301.987 0
  24318114.740 0
  21448999.403 0
  20723063.457 0
  21716197.340 0
  24034153.397 0
  20439197.745 0
  23421839.288 0
  24436323.476 0
 17  9 10  1 19 16.0000000  0 22G03G04G06G07G09G16G22G23G26G30
  21995182.128 0
  24712369.415 0
  24319726.386 0
  21446427.828 0
  20721329.210 0
  21717200.266 0
  24038528.264 0
  20439885.595 0
  23424940.463 0
  24432714.624 0
 17  9 10  1 19 22.0000000  0 22G03G04G06G07G09G16G22G23G26G30
  21998715.049 0
  24710378.377 0
  24321392.894 0
  21443898.369 0
  20719626.206 0
  21718173.774 0
  24042872.945 0
  20440567.930 0
  23428020.079 0
  24429148.544 0
 17  9 10  1 19 28.0000000  0 22G03G04G06G07G09G16G22G23G26G30
  22002252.571 0
  24708422.893 0
  24323047.806 0
  21441354.503 0
  20717918.292 0
  21719170.493 0
  24047222.263 0
  20441258.529 0
  23431115.530 0
  24425566.355 0
 17  9 10  1 19 34.0000000  0 22G03G04G06G07G09G16G22G23G26G30
  22005781.360 0
  24706419.492 0
  24324735.649 0
  21438839.468 0
  20716222.079 0
  21720149.263 0
  24051558.957 0
  20441939.581 0
  23434196.334 0
  24422010.262 0
 17  9 10  1 19 40.0000000  0 22G03G04G06G07G09G16G22G23G26G30
  22009296.196 0
  24704348.702 0
  24326505.065 0
  21436379.566 0
  20714560.218 0
  21721086.659 0
  24055855.700 0
  20442608.927 0
  23437241.073 0
  24418516.507 0
 17  9 10  1 19 46.0000000  0 22G03G04G06G07G09G16G22G23G26G30
  22012808.946 0
  24702248.548 0
  24328310.226 0
  21433943.038 0
  20712910.501 0
  21722009.656 0
  24060139.894 0
  20443270.774 0
  23440263.064 0
  24415056.873 0
 17  9 10  1 19 52.0000000  0 22G03G04G06G07G09G16G22G23G26G30
  22016337.591 0
  24700252.911 0
  24330008.261 0
  21431433.106 0
  20711224.489 0
  21723003.800 0
  24064467.873 0
  20443965.452 0
  23443360.878 0
  24411501.492 0
 17  9 10  1 19 58.0000000  0 22G03G04G06G07G09G16G22G23G26G30
  22019863.466 0
  24698248.704 0
  24331725.929 0
  21428935.924 0
  20709549.995 0
  21723988.115 0
  24068788.052 0
  20444659.261 0
  23446449.043 0
  24407961.025 0
 17  9 10  1 20  4.0000000  0 22G03G04G06G07G09G16G22G23G26G30
  22023398.615 0
  24696270.616 0
  24333417.740 0
  21426419.290 0
  20707865.632 0
  21725001.206 0
  24073113.149 0
  20445360.461 0
  23449563.019 0
  24404394.120 0
 17  9 10  1 20 10.0000000  0 22G03G04G06G07G09G16G22G23G26G30
  22026927.910 0
  24694272.536 0
  24335144.103 0
  21423926.557 0
  20706193.645 0
  21725995.641 0
  24077431.811 0
  20446059.464 0
  23452658.802 0
  24400855.214 0
 17  9 10  1 20 16.0000000  0 22G03G04G06G07G09G16G22G23G26G30
  22030453.815 0
  24692285.403 0
  24336859.477 0
  21421424.028 0
  20704526.543 0
  21727007.511 0
  24081743.855 0
  20446770.831 0
  23455773.291 0
  24397303.528 0
 17  9 10  1 20 22.0000000  0 22G03G04G06G07G09G16G22G23G26G30
  22033992.182 0
  24690306.255 0
  24338564.103 0
  21418921.723 0
  20702857.449 0
  21728029.269 0
  24086068.425 0
  20447476.856 0
  23458892.267 0
  24393740.128 0
 17  9 10  1 20 28.0000000  0 22G03G04G06G07G09G16G22G23G26G30
  22037551.758 0
  24688795.119 0
  24339807.809 0
  21416074.433 0
  20701057.274 0
  21729361.269 0
  24090504.174 0
  20448326.520 0
  23462346.482 0
  24389743.326 0
 17  9 10  1 20 34.0000000  0 22G03G04G06G07G09G16G22G23G26G30
  22041086.151 0
  24686824.844 0
  24341516.618 0
  21413572.711 0
  20699390.494 0
  21730396.436 0
  24094823.821 0
  20449043.862 0
  23465474.637 0
  24386181.656 0
 17  9 10  1 20 40.0000000  0 22G03G04G06G07G09G16G22G23G26G30
  22044621.805 0
  24684939.081 0
  24343146.380 0
  21411003.284 0
  20697710.628 0
  21731493.791 0
  24099150.271 0
  20449787.865 0
  23468672.486 0
  24382538.720 0
 17  9 10  1 20 46.0000000  0 22G03G04G06G07G09G16G22G23G26G30
  22048152.200 0
  24683039.461 0
  24344798.934 0
  21408467.321 0
  20696044.714 0
  21732580.194 0
  24103468.706 0
  20450535.056 0
  23471869.260 0
  24378904.982 0
 17  9 10  1 20 52.0000000  0 22G03G04G06G07G09G16G22G23G26G30
  22051683.007 0
  24681040.178 0
  24346545.860 0
  21405985.607 0
  20694394.155 0
  21733606.060 0
  24107772.237 0
  20451251.912 0
  23474991.357 0
  24375372.863 0
 17  9 10  1 20 58.0000000  0 22G03G04G06G07G09G16G22G23G26G30
  22055207.257 0
  24679172.085 0
  24348173.771 0
  21403416.676 0
  20692718.047 0
  21734730.427 0
  24112082.738 0
  20452016.576 0
  23478221.230 0
  24371713.938 0
 17  9 10  1 21  4.0000000  0 22G03G04G06G07G09G16G22G23G26G30
  22058729.042 0
  24677268.911 0
  24349837.672 0
  21400876.509 0
  20691066.257 0
  21735833.734 0
  24116380.287 0
  20452772.956 0
  23481439.481 0
  24368080.082 0
 17  9 10  1 21 10.0000000  0 22G03G04G06G07G09G16G22G23G26G30
  22062242.022 0
  24675397.485 0
  24351477.085 0
  21398316.993 0
  20689410.445 0
  21736963.706 0
  24120674.330 0
  20453538.763 0
  23484685.149 0
  24364418.379 0
 17  9 10  1 21 16.0000000  0 22G03G04G06G07G09G16G22G23G26G30
  22065762.611 0
  24673462.211 0
  24353187.198 0
  21395810.331 0
  20687770.537 0
  21738059.379 0
  24124962.095 0
  20454294.119 0
  23487883.846 0
  24360821.853 0
 17  9 10  1 21 22.0000000  0 22G03G04G06G07G09G16G22G23G26G30
  22069284.055 0
  24671484.400 0
  24354937.264 0
  21393335.203 0
  20686140.118 0
  21739127.286 0
  24129245.056 0
  20455032.229 0
  23491046.584 0
  24357268.072 0
 17  9 10  1 21 28.0000000  0 22G03G04G06G07G09G16G22G23G26G30
  22072821.112 0
  24669479.573 0
  24356728.171 0
  21390892.491 0
  20684518.429 0
  21740162.416 0
  24133530.903 0
  20455767.422 0
  23494183.619 0
  24353754.948 0
 17  9 10  1 21 34.0000000  0 22G03G04G06G07G09G16G22G23G26G30
  22076366.660 0
  24667447.616 0
  24358544.026 0
  21388474.847 0
  20682901.595 0
  21741191.666 0
  24137821.971 0
  20456490.766 0
  23497291.225 0
  24350278.514 0
 17  9 10  1 21 40.0000000  0 22G03G04G06G07G09G16G22G23G26G30
  22079882.143 0
  24665526.247 0
  24360253.054 0
  21385966.844 0
  20681271.849 0
  21742311.025 0
  24142091.898 0
  20457257.144 0
  23500522.283 0
  24346670.855 0
 17  9 10  1 21 46.0000000  0 22G03G04G06G07G09G16G22G23G26G30
  22083354.326 0
  24663730.558 0
  24361850.989 0
  21383354.823 0
  20679638.375 0
  21743530.610 0
  24146336.930 0
  20458074.023 0
  23503879.708 0
  24342915.274 0
 17  9 10  1 21 52.0000000  0 22G03G04G06G07G09G16G22G23G26G30
  22086825.856 0
  24661873.542 0
  24363505.217 0
  21380803.073 0
  20678025.684 0
  21744713.704 0
  24150572.901 0
  20458875.418 0
  23507195.973 0
  24339233.849 0
 17  9 10  1 21 58.0000000  0 22G03G04G06G07G09G16G22G23G26G30
  22090371.396 0
  24659858.710 0
  24365324.861 0
  21378386.839 0
  20676420.355 0
  21745766.189 0
  24154849.000 0
  20459616.270 0
  23510335.524 0
  24335739.796 0
 17  9 10  1 22  4.0000000  0 22G03G04G06G07G09G16G22G23G26G30
  22093849.336 0
  24658024.994 0
  24366971.246 0
  21375817.609 0
  20674805.177 0
  21746975.080 0
  24159086.580 0
  20460432.567 0
  23513677.999 0
  24332036.762 0
 17  9 10  1 22 10.0000000  0 22G03G04G06G07G09G16G22G23G26G30
  22097334.251 0
  24656209.121 0
  24368598.921 0
  21373240.920 0
  20673181.800 0
  21748194.771 0
  24163331.789 0
  20461251.743 0
  23517021.240 0
  24328319.385 0
 17  9 10  1 22 16.0000000  0 22G03G04G06G07G09G16G22G23G26G30
  22100841.722 0
  24654364.984 0
  24370266.239 0
  21370702.169 0
  20671565.002 0
  21749391.647 0
  24167596.269 0
  20462058.822 0
  23520328.984 0
  24324644.441 0
 17  9 10  1 22 22.0000000  0 22G03G04G06G07G09G16G22G23G26G30
  22104414.901 0
  24652312.300 0
  24372143.130 0
  21368337.561 0
  20669968.288 0
  21750420.128 0
  24171896.403 0
  20462787.551 0
  23523426.444 0
  24321220.077 0
 17  9 10  1 22 28.0000000  0 22G03G04G06G07G09G16G22G23G26G30
  22107980.302 0
  24650329.557 0
  24373954.230 0
  21365921.338 0
  20668361.889 0
  21751506.372 0
  24176186.262 0
  20463545.721 0
  23526590.969 0
  24317718.482 0
 17  9 10  1 22 34.0000000  0 22G03G04G06G07G09G16G22G23G26G30
  22111506.027 0
  24648513.079 0
  24375599.842 0
  21363369.239 0
  20666741.916 0
  21752729.055 0
  24180463.759 0
  20464367.793 0
  23529912.161 0
  24314032.609 0
 17  9 10  1 22 40.0000000  0 22G03G04G06G07G09G16G22G23G26G30
  22115045.244 0
  24646675.535 0
  24377281.841 0
  21360845.263 0
  20665120.685 0
  21753928.277 0
  24184756.674 0
  20465181.327 0
  23533208.647 0
  24310383.073 0
 17  9 10  1 22 46.0000000  0 22G03G04G06G07G09G16G22G23G26G30
  22118625.474 0
  24644660.984 0
  24379128.938 0
  21358465.126 0
  20663524.634 0
  21754999.765 0
  24189057.964 0
  20465933.348 0
  23536347.230 0
  24306920.607 0
 17  9 10  1 22 52.0000000  0 22G03G04G06G07G09G16G22G23G26G30
  22122199.543 0
  24642670.509 0
  24380963.492 0
  21356066.840 0
  20661929.635 0
  21756098.935 0
  24193355.242 0
  20466696.975 0
  23539509.393 0
  24303434.251 0
 17  9 10  1 22 58.0000000  0 22G03G04G06G07G09G16G22G23G26G30
  22125767.243 0
  24640761.170 0
  24382733.756 0
  21353615.147 0
  20660323.330 0
  21757244.867 0
  24197658.701 0
  20467492.244 0
  23542738.513 0
  24299880.392 0
 17  9 10  1 23  4.0000000  0 22G03G04G06G07G09G16G22G23G26G30
  22129336.661 0
  24638912.311 0
  24384436.122 0
  21351120.429 0
  20658705.410 0
  21758442.937 0
  24201964.697 0
  20468304.556 0
  23546017.018 0
  24296263.246 0
 17  9 10  1 23 10.0000000  0 22G03G04G06G07G09G16G22G23G26G30
  22132913.944 0
  24636998.273 0
  24386206.317 0
  21348678.537 0
  20657103.157 0
  21759602.174 0
  24206274.549 0
  20469102.546 0
  23549242.600 0
  24292711.172 0
 17  9 10  1 23 16.0000000  0 22G03G04G06G07G09G16G22G23G26G30
  22136502.704 0
  24635117.267 0
  24387956.891 0
  21346217.000 0
  20655495.228 0
  21760778.863 0
  24210594.535 0
  20469905.155 0
  23552486.425 0
  24289136.450 0
 17  9 10  1 23 22.0000000  0 22G03G04G06G07G09G16G22G23G26G30
  22139969.622 0
  24634990.800 0
  24387945.543 0
  21342428.588 0
  20653541.151 0
  21763190.806 0
  24215115.717 0
  20471294.135 0
  23557136.134 0
  24283805.110 0
 17  9 10  1 23 28.0000000  0 22G03G04G06G07G09G16G22G23G26G30
  22143576.891 0
  24632961.836 0
  24389842.486 0
  21340092.768 0
  20651965.612 0
  21764273.056 0
  24219418.787 0
  20472053.742 0
  23560264.237 0
  24280390.080 0
 17  9 10  1 23 34.0000000  0 22G03G04G06G07G09G16G22G23G26G30
  22147177.408 0
  24630932.871 0
  24391755.406 0
  21337760.416 0
  20650391.460 0
  21765351.374 0
  24223720.545 0
  20472813.546 0
  23563389.310 0
  24276974.092 0
 17  9 10  1 23 40.0000000  0 22G03G04G06G07G09G16G22G23G26G30
  22150763.826 0
  24629241.432 0
  24393327.114 0
  21335177.193 0
  20648747.583 0
  21766675.467 0
  24228067.706 0
  20473696.085 0
  23566795.175 0
  24273225.105 0
 17  9 10  1 23 46.0000000  0 22G03G04G06G07G09G16G22G23G26G30
  22154365.157 0
  24627308.350 0
  24395143.450 0
  21332777.263 0
  20647168.588 0
  21767833.953 0
  24232379.525 0
  20474496.615 0
  23570007.127 0
  24269714.650 0
 17  9 10  1 23 52.0000000  0 22G03G04G06G07G09G16G22G23G26G30
  22157949.368 0
  24625498.901 0
  24396847.400 0
  21330288.969 0
  20645566.271 0
  21769079.961 0
  24236696.948 0
  20475340.847 0
  23573320.984 0
  24266085.081 0
 17  9 10  1 23 58.0000000  0 22G03G04G06G07G09G16G22G23G26G30
  22161542.520 0
  24623602.092 0
  24398643.376 0
  21327871.416 0
  20643978.254 0
  21770263.325 0
  24241000.370 0
  20476154.890 0
  23576569.279 0
  24262544.822 0
 17  9 10  1 24  4.0000000  0 22G03G04G06G07G09G16G22G23G26G30
  22165128.005 0
  24621748.961 0
  24400403.906 0
  21325422.285 0
  20642394.477 0
  21771493.961 0
  24245305.204 0
  20476988.530 0
  23579859.000 0
  24258964.363 0
 17  9 10  1 24 10.0000000  0 22G03G04G06G07G09G16G22G23G26G30
  22168716.226 0
  24619861.629 0
  24402197.103 0
  21323001.925 0
  20640819.512 0
  21772697.722 0
  24249604.817 0
  20477818.597 0
  23583126.518 0
  24255412.951 0
 17  9 10  1 24 16.0000000  0 22G03G04G06G07G09G16G22G23G26G30
  22172314.688 0
  24617942.966 0
  24404023.285 0
  21320612.100 0
  20639251.504 0
  21773886.161 0
  24253899.132 0
  20478637.964 0
  23586369.686 0
  24251898.814 0
 17  9 10  1 24 22.0000000  0 22G03G04G06G07G09G16G22G23G26G30
  22175895.407 0
  24616088.360 0
  24405798.520 0
  21318176.578 0
  20637681.025 0
  21775121.107 0
  24258184.295 0
  20479478.978 0
  23589670.958 0
  24248325.233 0
 17  9 10  1 24 28.0000000  0 22G03G04G06G07G09G16G22G23G26G30
  22179467.654 0
  24614233.345 0
  24407572.132 0
  21315739.441 0
  20636117.594 0
  21776368.878 0
  24262465.437 0
  20480327.925 0
  23592984.119 0
  24244742.274 0
 17  9 10  1 24 34.0000000  0 22G03G04G06G07G09G16G22G23G26G30
  22183022.599 0
  24612425.879 0
  24409300.841 0
  21313267.335 0
  20634550.575 0
  21777656.218 0
  24266723.331 0
  20481192.628 0
  23596350.896 0
  24241102.357 0
 17  9 10  1 24 40.0000000  0 22G03G04G06G07G09G16G22G23G26G30
  22186626.213 0
  24610487.890 0
  24411174.406 0
  21310906.082 0
  20633002.352 0
  21778842.884 0
  24271013.763 0
  20482018.292 0
  23599587.191 0
  24237619.715 0
 17  9 10  1 24 46.0000000  0 22G03G04G06G07G09G16G22G23G26G30
  22190183.528 0
  24608648.492 0
  24412947.623 0
  21308471.040 0
  20631452.062 0
  21780115.584 0
  24275266.523 0
  20482879.835 0
  23602939.208 0
  24234021.892 0
 17  9 10  1 24 52.0000000  0 22G03G04G06G07G09G16G22G23G26G30
  22193739.290 0
  24606804.026 0
  24414732.251 0
  21306035.298 0
  20629909.504 0
  21781388.965 0
  24279511.694 0
  20483744.478 0
  23606288.966 0
  24230431.762 0
 17  9 10  1 24 58.0000000  0 22G03G04G06G07G09G16G22G23G26G30
  22197327.707 0
  24604891.711 0
  24416586.752 0
  21303663.762 0
  20628368.459 0
  21782605.952 0
  24283783.248 0
  20484581.449 0
  23609562.865 0
  24226919.207 0
 17  9 10  1 25  4.0000000  0 22G03G04G06G07G09G16G22G23G26G30
  22200869.513 0
  24603060.930 0
  24418371.013 0
  21301233.137 0
  20626833.358 0
  21783903.271 0
  24288009.326 0
  20485454.764 0
  23612934.410 0
  24223316.605 0
 17  9 10  1 25 10.0000000  0 22G03G04G06G07G09G16G22G23G26G30
  22204407.675 0
  24601214.798 0
  24420168.206 0
  21298809.055 0
  20625311.831 0
  21785194.936 0
  24292232.448 0
  20486331.398 0
  23616306.246 0
  24219719.902 0
 17  9 10  1 25 16.0000000  0 22G03G04G06G07G09G16G22G23G26G30
  22207997.985 0
  24599295.993 0
  24422048.548 0
  21296456.722 0
  20623779.641 0
  21786417.426 0
  24296490.651 0
  20487172.335 0
  23619584.404 0
  24216229.889 0
 17  9 10  1 25 22.0000000  0 22G03G04G06G07G09G16G22G23G26G30
  22211551.646 0
  24597424.164 0
  24423878.860 0
  21294068.231 0
  20622264.090 0
  21787692.199 0
  24300715.179 0
  20488047.402 0
  23622936.303 0
  24212673.683 0
 17  9 10  1 25 28.0000000  0 22G03G04G06G07G09G16G22G23G26G30
  22215131.067 0
  24595516.369 0
  24425762.893 0
  21291711.828 0
  20620741.337 0
  21788934.428 0
  24304964.016 0
  20488892.629 0
  23626227.707 0
  24209174.023 0
 17  9 10  1 25 34.0000000  0 22G03G04G06G07G09G16G22G23G26G30
  22218742.609 0
  24593564.130 0
  24427683.073 0
  21289397.054 0
  20619221.532 0
  21790137.943 0
  24309238.690 0
  20489728.246 0
  23629469.084 0
  24205727.609 0
 17  9 10  1 25 40.0000000  0 22G03G04G06G07G09G16G22G23G26G30
  22222301.946 0
  24591681.937 0
  24429545.780 0
  21287025.862 0
  20617716.761 0
  21791417.696 0
  24313459.843 0
  20490599.187 0
  23632816.165 0
  24202187.624 0
 17  9 10  1 25 46.0000000  0 22G03G04G06G07G09G16G22G23G26G30
  22225885.806 0
  24589770.936 0
  24431437.960 0
  21284685.073 0
  20616203.365 0
  21792667.739 0
  24317696.051 0
  20491457.200 0
  23636122.211 0
  24198689.006 0
 17  9 10  1 25 52.0000000  0 22G03G04G06G07G09G16G22G23G26G30
  22229529.602 0
  24587798.605 0
  24433398.716 0
  21282407.834 0
  20614681.680 0
  21793857.767 0
  24321997.016 0
  20492287.720 0
  23639327.284 0
  24195294.976 0
 17  9 10  1 25 58.0000000  0 22G03G04G06G07G09G16G22G23G26G30
  22233015.219 0
  24585990.209 0
  24435202.182 0
  21279984.486 0
  20613200.625 0
  21795220.364 0
  24326140.390 0
  20493198.074 0
  23642796.437 0
  24191658.777 0
 17  9 10  1 26  4.0000000  0 22G03G04G06G07G09G16G22G23G26G30
  22236603.374 0
  24584084.280 0
  24437101.226 0
  21277652.009 0
  20611702.035 0
  21796482.409 0
  24330389.924 0
  20494064.831 0
  23646098.795 0
  24188176.749 0
 17  9 10  1 26 10.0000000  0 22G03G04G06G07G09G16G22G23G26G30
  22240206.776 0
  24582174.704 0
  24439011.112 0
  21275327.581 0
  20610196.917 0
  21797746.887 0
  24334641.956 0
  20494927.587 0
  23649400.788 0
  24184695.714 0
 17  9 10  1 26 16.0000000  0 22G03G04G06G07G09G16G22G23G26G30
  22243837.162 0
  24580247.820 0
  24440945.732 0
  21273029.344 0
  20608687.149 0
  21798985.023 0
  24338913.016 0
  20495782.668 0
  23652667.751 0
  24181246.758 0
 17  9 10  1 26 22.0000000  0 22G03G04G06G07G09G16G22G23G26G30
  22247451.435 0
  24578344.509 0
  24442861.421 0
  21270710.347 0
  20607180.612 0
  21800245.148 0
  24343182.811 0
  20496648.324 0
  23655969.366 0
  24177781.755 0
 17  9 10  1 26 28.0000000  0 22G03G04G06G07G09G16G22G23G26G30
  22251093.102 0
  24576414.772 0
  24444800.129 0
  21268420.916 0
  20605671.815 0
  21801490.247 0
  24347473.774 0
  20497507.601 0
  23659228.022 0
  24174351.607 0
 17  9 10  1 26 34.0000000  0 22G03G04G06G07G09G16G22G23G26G30
  22254706.502 0
  24574544.060 0
  24446688.627 0
  21266086.088 0
  20604163.978 0
  21802790.019 0
  24351733.375 0
  20498394.541 0
  23662561.330 0
  24170852.482 0
 17  9 10  1 26 40.0000000  0 22G03G04G06G07G09G16G22G23G26G30
  22258363.073 0
  24572613.488 0
  24448634.907 0
  21263812.837 0
  20602660.214 0
  21804029.517 0
  24356033.561 0
  20499249.685 0
  23665810.657 0
  24167437.707 0
 17  9 10  1 26 46.0000000  0 22G03G04G06G07G09G16G22G23G26G30
  22262020.626 0
  24570687.347 0
  24450602.212 0
  21261535.068 0
  20601149.706 0
  21805273.147 0
  24360330.829 0
  20500108.586 0
  23669062.320 0
  24164022.082 0
 17  9 10  1 26 52.0000000  0 22G03G04G06G07G09G16G22G23G26G30
  22265671.190 0
  24568794.175 0
  24452527.579 0
  21259242.152 0
  20599645.255 0
  21806546.752 0
  24364628.661 0
  20500985.597 0
  23672354.706 0
  24160573.293 0
 17  9 10  1 26 58.0000000  0 22G03G04G06G07G09G16G22G23G26G30
  22269323.590 0
  24566914.207 0
  24454447.978 0
  21256936.461 0
  20598140.003 0
  21807833.821 0
  24368916.367 0
  20501863.544 0
  23675652.595 0
  24157114.899 0
 17  9 10  1 27  4.0000000  0 22G03G04G06G07G09G16G22G23G26G30
  22272978.483 0
  24565026.899 0
  24456377.824 0
  21254649.193 0
  20596636.655 0
  21809112.417 0
  24373214.224 0
  20502750.420 0
  23678945.796 0
  24153666.381 0
 17  9 10  1 27 10.0000000  0 22G03G04G06G07G09G16G22G23G26G30
  22276644.075 0
  24563145.508 0
  24458312.589 0
  21252356.258 0
  20595132.986 0
  21810406.185 0
  24377513.366 0
  20503634.951 0
  23682236.203 0
  24150224.458 0
 17  9 10  1 27 16.0000000  0 22G03G04G06G07G09G16G22G23G26G30
  22280245.021 0
  24561536.319 0
  24459961.308 0
  21249854.432 0
  20593605.892 0
  21811910.241 0
  24381802.347 0
  20504624.870 0
  23685795.872 0
  24146475.230 0
 17  9 10  1 27 22.0000000  0 22G03G04G06G07G09G16G22G23G26G30
  22283883.857 0
  24559776.183 0
  24461779.541 0
  21247479.308 0
  20592094.900 0
  21813300.113 0
  24386086.112 0
  20505558.852 0
  23689208.838 0
  24142904.045 0
 17  9 10  1 27 28.0000000  0 22G03G04G06G07G09G16G22G23G26G30
  22287533.122 0
  24557962.736 0
  24463648.042 0
  21245144.888 0
  20590596.845 0
  21814652.872 0
  24390377.752 0
  20506476.880 0
  23692570.471 0
  24139383.594 0
 17  9 10  1 27 34.0000000  0 22G03G04G06G07G09G16G22G23G26G30
  22291212.692 0
  24556057.129 0
  24465627.889 0
  21242893.546 0
  20589102.133 0
  21815926.482 0
  24394685.516 0
  20507359.588 0
  23695846.807 0
  24135987.132 0
 17  9 10  1 27 40.0000000  0 22G03G04G06G07G09G16G22G23G26G30
  22294697.247 0
  24554629.860 0
  24467115.870 0
  21240258.424 0
  20587611.037 0
  21817616.016 0
  24398856.260 0
  20508439.218 0
  23699644.255 0
  24132023.219 0
 17  9 10  1 27 46.0000000  0 22G03G04G06G07G09G16G22G23G26G30
  22298288.101 0
  24552941.927 0
  24468885.204 0
  21237839.719 0
  20586125.207 0
  21819088.510 0
  24403093.096 0
  20509419.129 0
  23703161.542 0
  24128364.411 0
 17  9 10  1 27 52.0000000  0 22G03G04G06G07G09G16G22G23G26G30
  22301955.789 0
  24551064.576 0
  24470836.373 0
  21235577.122 0
  20584644.035 0
  21820400.030 0
  24407387.615 0
  20510313.118 0
  23706474.968 0
  24124934.380 0
 17  9 10  1 27 58.0000000  0 22G03G04G06G07G09G16G22G23G26G27G30
  22305647.050 0
  24549153.362 0
  24472832.231 0
  21233343.891 0
  20583165.882 0
  21821691.249 0
  24411694.967 0
  20511202.313 0
  23709754.774 0
  24733224.786 0
  24121541.149 0
 17  9 10  1 28  4.0000000  0 22G03G04G06G07G09G16G22G23G26G27G30
  22309339.980 0
  24547242.461 0
  24474833.634 0
  21231112.621 0
  20581684.512 0
  21822976.476 0
  24415998.835 0
  20512095.955 0
  23713021.405 0
  24730643.973 0
  24118157.647 0
 17  9 10  1 28 10.0000000  0 22G03G04G06G07G09G16G22G23G26G27G30
  22313001.568 0
  24545379.421 0
  24476788.997 0
  21228844.493 0
  20580208.008 0
  21824313.958 0
  24420282.747 0
  20513008.528 0
  23716358.075 0
  24728095.509 0
  24114716.822 0
 17  9 10  1 28 16.0000000  0 22G03G04G06G07G09G16G22G23G26G27G30
  22316672.271 0
  24543517.350 0
  24478751.506 0
  21226586.340 0
  20578741.086 0
  21825650.237 0
  24424560.668 0
  20513920.070 0
  23719692.129 0
  24725542.580 0
  24111281.774 0
 17  9 10  1 28 22.0000000  0 22G03G04G06G07G09G16G22G23G26G27G30
  22320310.773 0
  24541686.422 0
  24480684.324 0
  21224302.104 0
  20577282.981 0
  21827026.594 0
  24428813.310 0
  20514853.636 0
  23723079.432 0
  24723014.884 0
  24107803.629 0
 17  9 10  1 28 28.0000000  0 22G03G04G06G07G09G16G22G23G26G27G30
  22323969.242 0
  24539824.432 0
  24482655.734 0
  21222047.827 0
  20575822.981 0
  21828378.998 0
  24433079.420 0
  20515775.365 0
  23726425.804 0
  24720459.078 0
  24104370.003 0
 17  9 10  1 28 34.0000000  0 22G03G04G06G07G09G16G22G23G26G27G30
  22327624.077 0
  24537964.106 0
  24484626.907 0
  21219795.014 0
  20574370.437 0
  21829732.764 0
  24437339.564 0
  20516695.655 0
  23729787.466 0
  24717909.375 0
  24100925.690 0
 17  9 10  1 28 40.0000000  0 22G03G04G06G07G09G16G22G23G26G27G30
  22330982.025 0
  24536382.858 0
  24486329.786 0
  21217303.907 0
  20573002.802 0
  21831409.191 0
  24441299.714 0
  20517769.081 0
  23733605.836 0
  24715537.349 0
  24097080.428 0
 17  9 10  1 28 46.0000000  0 22G03G04G06G07G09G16G22G23G26G27G30
  22334564.904 0
  24534580.176 0
  24488249.958 0
  21215006.494 0
  20571572.835 0
  21832834.950 0
  24445494.260 0
  20518728.866 0
  23737067.481 0
  24713016.242 0
  24093562.399 0
 17  9 10  1 28 52.0000000  0 22G03G04G06G07G09G16G22G23G26G27G30
  22338201.864 0
  24532747.121 0
  24490211.421 0
  21212749.440 0
  20570136.246 0
  21834224.964 0
  24449730.059 0
  20519672.419 0
  23740467.532 0
  24710482.710 0
  24090101.985 0
 17  9 10  1 28 58.0000000  0 22G03G04G06G07G09G16G22G23G26G27G30
  22341895.512 0
  24530862.962 0
  24492230.452 0
  21210538.121 0
  20568681.014 0
  21835561.603 0
  24454018.718 0
  20520587.248 0
  23743779.417 0
  24707904.913 0
  24086710.875 0
 17  9 10  1 29  4.0000000  0 22G03G04G06G07G09G16G22G23G26G27G30
  22345306.275 0
  24529248.719 0
  24493974.364 0
  21208089.770 0
  20567309.275 0
  21837209.409 0
  24458031.716 0
  20521645.032 0
  23747539.406 0
  24705523.027 0
  24082928.997 0
 17  9 10  1 29 10.0000000  0 22G03G04G06G07G09G16G22G23G26G27G30
  22348945.093 0
  24527440.059 0
  24495928.052 0
  21205828.819 0
  20565873.058 0
  21838619.510 0
  24462259.506 0
  20522600.565 0
  23750964.331 0
  24702995.835 0
  24079462.027 0
 17  9 10  1 29 16.0000000  0 22G03G04G06G07G09G16G22G23G26G27G30
  22352604.941 0
  24525611.368 0
  24497898.390 0
  21203586.807 0
  20564435.272 0
  21840024.910 0
  24466514.522 0
  20523552.875 0
  23754363.640 0
  24700468.908 0
  24076008.733 0
 17  9 10  1 29 22.0000000  0 22G03G04G06G07G09G16G22G23G26G27G30
  22356292.109 0
  24523765.185 0
  24499898.703 0
  21201363.311 0
  20562992.534 0
  21841405.695 0
  24470796.531 0
  20524494.290 0
  23757710.706 0
  24697924.287 0
  24072598.270 0
 17  9 10  1 29 28.0000000  0 22G03G04G06G07G09G16G22G23G26G27G30
  22360021.653 0
  24521874.630 0
  24501941.517 0
  21199179.377 0
  20561542.252 0
  21842740.402 0
  24475109.318 0
  20525410.786 0
  23761011.363 0
  24695350.336 0
  24069243.001 0
 17  9 10  1 29 34.0000000  0 22G03G04G06G07G09G16G22G23G26G27G30
  22362998.574 0
  24520913.822 0
  24503057.412 0
  21196237.312 0
  20560263.853 0
  21845017.815 0
  24478744.676 0
  20526773.282 0
  23765627.242 0
  24693465.903 0
  24064660.867 0
 17  9 10  1 29 40.0000000  0 22G03G04G06G07G09G16G22G23G26G27G30
  22366696.481 0
  24519068.224 0
  24505067.604 0
  21194027.061 0
  20558824.048 0
  21846404.733 0
  24483021.276 0
  20527717.347 0
  23768986.186 0
  24690921.995 0
  24061255.198 0
 17  9 10  1 29 46.0000000  0 22G03G04G06G07G09G16G22G23G26G27G30
  22370417.002 0
  24517195.192 0
  24507103.593 0
  21191841.323 0
  20557385.450 0
  21847767.492 0
  24487319.058 0
  20528648.777 0
  23772312.270 0
  24688360.296 0
  24057886.901 0
 17  9 10  1 29 52.0000000  0 22G03G04G06G07G09G16G22G23G26G27G30
  22374155.660 0
  24515306.993 0
  24509166.177 0
  21189679.641 0
  20555945.837 0
  21849114.482 0
  24491639.733 0
  20529576.764 0
  23775610.992 0
  24685781.742 0
  24054555.930 0
 17  9 10  1 29 58.0000000  0 22G03G04G06G07G09G16G22G23G26G27G30
  22377857.888 0
  24513461.169 0
  24511194.181 0
  21187487.825 0
  20554515.318 0
  21850507.717 0
  24495913.979 0
  20530529.749 0
  23778968.833 0
  24683238.354 0
  24051169.556 0
 17  9 10  1 30  4.0000000  0 22G03G04G06G07G09G16G22G23G26G27G30
  22381604.093 0
  24511574.403 0
  24513263.309 0
  21185332.503 0
  20553078.089 0
  21851861.021 0
  24500235.884 0
  20531461.427 0
  23782263.592 0
  24680658.441 0
  24047840.334 0
 17  9 10  1 30 10.0000000  0 22G03G04G06G07G09G16G22G23G26G27G30
  22385296.153 0
  24509744.711 0
  24515280.742 0
  21183130.608 0
  20551655.696 0
  21853280.888 0
  24504498.503 0
  20532425.601 0
  23785649.965 0
  24678121.827 0
  24044438.141 0
 17  9 10  1 30 16.0000000  0 22G03G04G06G07G09G16G22G23G26G27G30
  22388987.511 0
  24507914.681 0
  24517301.069 0
  21180934.271 0
  20550241.377 0
  21854701.849 0
  24508759.304 0
  20533387.779 0
  23789046.471 0
  24675586.953 0
  24041027.930 0
 17  9 10  1 30 22.0000000  0 22G03G04G06G07G09G16G22G23G26G27G30
  22392693.932 0
  24506070.292 0
  24519346.084 0
  21178758.828 0
  20548819.446 0
  21856106.843 0
  24513035.820 0
  20534345.614 0
  23792410.136 0
  24673038.148 0
  24037649.900 0
 17  9 10  1 30 28.0000000  0 22G03G04G06G07G09G16G22G23G26G27G30
  22396404.011 0
  24504226.553 0
  24521391.599 0
  21176584.005 0
  20547404.364 0
  21857513.987 0
  24517310.961 0
  20535302.019 0
  23795775.946 0
  24670485.780 0
  24034282.572 0
 17  9 10  1 30 34.0000000  0 22G03G04G06G07G09G16G22G23G26G27G30
  22400122.356 0
  24502372.876 0
  24523447.987 0
  21174416.617 0
  20545988.956 0
  21858919.676 0
  24521586.319 0
  20536259.870 0
  23799139.556 0
  24667924.435 0
  24030913.829 0
 17  9 10  1 30 40.0000000  0 22G03G04G06G07G09G16G22G23G26G27G30
  22403793.668 0
  24500553.169 0
  24525482.355 0
  21172231.150 0
  20544591.342 0
  21860366.252 0
  24525818.936 0
  20537236.705 0
  23802562.239 0
  24665388.867 0
  24027503.991 0
 17  9 10  1 30 46.0000000  0 22G03G04G06G07G09G16G22G23G26G27G30
  22407516.019 0
  24498707.452 0
  24527542.710 0
  21170072.813 0
  20543183.429 0
  21861782.867 0
  24530096.959 0
  20538203.751 0
  23805930.094 0
  24662836.228 0
  24024146.479 0
 17  9 10  1 30 52.0000000  0 22G03G04G06G07G09G16G22G23G26G27G30
  22411258.229 0
  24496847.592 0
  24529623.208 0
  21167931.711 0
  20541770.769 0
  21863178.133 0
  24534395.640 0
  20539157.531 0
  23809257.979 0
  24660266.579 0
  24020813.077 0
 17  9 10  1 30 58.0000000  0 22G03G04G06G07G09G16G22G23G26G27G30
  22415017.836 0
  24494982.593 0
  24531713.490 0
  21165795.994 0
  20540351.269 0
  21864570.506 0
  24538714.919 0
  20540118.103 0
  23812587.454 0
  24657710.325 0
  24017490.144 0
 17  9 10  1 31  4.0000000  0 22G03G04G06G07G09G16G22G23G26G27G30
  22418722.489 0
  24493150.203 0
  24533775.213 0
  21163636.096 0
  20538956.540 0
  21866012.987 0
  24542965.089 0
  20541092.376 0
  23815986.365 0
  24655159.422 0
  24014114.761 0
 17  9 10  1 31 10.0000000  0 22G03G04G06G07G09G16G22G23G26G27G30
  22422465.461 0
  24491302.236 0
  24535858.301 0
  21161496.599 0
  20537549.023 0
  21867425.615 0
  24547260.054 0
  20542063.651 0
  23819336.566 0
  24652604.732 0
  24010779.420 0
 17  9 10  1 31 16.0000000  0 22G03G04G06G07G09G16G22G23G26G27G30
  22426202.593 0
  24489456.762 0
  24537939.306 0
  21159358.597 0
  20536151.544 0
  21868855.963 0
  24551545.473 0
  20543035.154 0
  23822708.598 0
  24650051.540 0
  24007435.962 0
 17  9 10  1 31 22.0000000  0 22G03G04G06G07G09G16G22G23G26G27G30
  22429964.969 0
  24487607.168 0
  24540035.317 0
  21157235.635 0
  20534737.475 0
  21870266.653 0
  24555851.666 0
  20544000.407 0
  23826042.541 0
  24647494.600 0
  24004117.485 0
 17  9 10  1 31 28.0000000  0 22G03G04G06G07G09G16G22G23G26G27G30
  22433680.361 0
  24485779.887 0
  24542113.150 0
  21155086.210 0
  20533351.594 0
  21871721.537 0
  24560106.312 0
  20544985.290 0
  23829451.724 0
  24644949.145 0
  24000751.137 0
 17  9 10  1 31 34.0000000  0 22G03G04G06G07G09G16G22G23G26G27G30
  22437441.930 0
  24483936.104 0
  24544209.193 0
  21152964.074 0
  20531955.729 0
  21873150.213 0
  24564415.343 0
  20545960.110 0
  23832794.429 0
  24642400.629 0
  23997429.711 0
 17  9 10  1 31 40.0000000  0 22G03G04G06G07G09G16G22G23G26G27G30
  22441187.854 0
  24482105.654 0
  24546297.710 0
  21150834.506 0
  20530563.221 0
  21874595.979 0
  24568694.672 0
  20546940.738 0
  23836173.959 0
  24639858.993 0
  23994088.454 0
 17  9 10  1 31 46.0000000  0 22G03G04G06G07G09G16G22G23G26G27G30
  22444955.247 0
  24480262.130 0
  24548402.628 0
  21148716.065 0
  20529165.955 0
  21876028.395 0
  24572998.950 0
  20547922.829 0
  23839534.500 0
  24637303.973 0
  23990770.297 0
 17  9 10  1 31 52.0000000  0 22G03G04G06G07G09G16G22G23G26G27G30
  22448719.743 0
  24478429.986 0
  24550497.870 0
  21146597.952 0
  20527769.861 0
  21877466.640 0
  24577300.483 0
  20548906.010 0
  23842896.193 0
  24634763.962 0
  23987444.445 0
 17  9 10  1 31 58.0000000  0 22G03G04G06G07G09G16G22G23G26G27G30
  22452477.353 0
  24476605.463 0
  24552597.949 0
  21144480.178 0
  20526379.335 0
  21878916.233 0
  24581597.040 0
  20549893.413 0
  23846269.655 0
  24632221.995 0
  23984119.246 0
 17  9 10  1 32  4.0000000  0 22G03G04G06G07G09G16G22G23G26G27G30
  22456243.819 0
  24474780.076 0
  24554702.168 0
  21142363.421 0
  20524993.275 0
  21880369.736 0
  24585893.516 0
  20550887.274 0
  23849647.784 0
  24629686.700 0
  23980790.486 0
 17  9 10  1 32 10.0000000  0 22G03G04G06G07G09G16G22G23G26G27G30
  22460032.869 0
  24472944.517 0
  24556813.777 0
  21140264.886 0
  20523596.632 0
  21881808.145 0
  24590212.162 0
  20551874.203 0
  23852996.508 0
  24627139.902 0
  23977484.602 0
 17  9 10  1 32 16.0000000  0 22G03G04G06G07G09G16G22G23G26G27G30
  22463799.143 0
  24471127.555 0
  24558922.074 0
  21138149.470 0
  20522213.274 0
  21883275.740 0
  24594515.116 0
  20552871.049 0
  23856375.637 0
  24624607.143 0
  23974156.681 0
 17  9 10  1 32 22.0000000  0 22G03G04G06G07G09G16G22G23G26G27G30
  22467531.059 0
  24469339.683 0
  24560994.847 0
  21136009.919 0
  20520841.738 0
  21884776.914 0
  24598775.051 0
  20553883.219 0
  23859817.122 0
  24622099.108 0
  23970789.209 0
 17  9 10  1 32 28.0000000  0 22G03G04G06G07G09G16G22G23G26G27G30
  22471279.379 0
  24467563.195 0
  24563065.987 0
  21133884.516 0
  20519462.549 0
  21886280.972 0
  24603043.172 0
  20554903.851 0
  23863250.416 0
  24619592.727 0
  23967419.617 0
 17  9 10  1 32 34.0000000  0 22G03G04G06G07G09G16G22G23G26G27G30
  22475033.146 0
  24465781.753 0
  24565150.289 0
  21131754.702 0
  20518089.857 0
  21887784.772 0
  24607331.095 0
  20555920.778 0
  23866678.979 0
  24617089.874 0
  23964067.470 0
 17  9 10  1 32 40.0000000  0 22G03G04G06G07G09G16G22G23G26G27G30
  22478828.434 0
  24463965.148 0
  24567271.580 0
  21129662.325 0
  20516706.214 0
  21889251.701 0
  24611646.283 0
  20556926.432 0
  23870043.085 0
  24614557.268 0
  23960760.919 0
 17  9 10  1 32 46.0000000  0 22G03G04G06G07G09G16G22G23G26G27G30
  22482627.220 0
  24462148.655 0
  24569393.968 0
  21127573.645 0
  20515327.222 0
  21890718.451 0
  24615962.495 0
  20557929.220 0
  23873415.270 0
  24612023.924 0
  23957460.999 0
 17  9 10  1 32 52.0000000  0 22G03G04G06G07G09G16G22G23G26G27G30
  22486391.687 0
  24460379.162 0
  24571483.077 0
  21125447.174 0
  20513955.721 0
  21892234.154 0
  24620248.946 0
  20558953.127 0
  23876845.475 0
  24609529.444 0
  23954100.592 0
 17  9 10  1 32 58.0000000  0 22G03G04G06G07G09G16G22G23G26G27G30
  22490194.205 0
  24458568.106 0
  24573608.776 0
  21123364.370 0
  20512577.644 0
  21893711.203 0
  24624574.451 0
  20559964.527 0
  23880219.746 0
  24607004.117 0
  23950800.847 0
 17  9 10  1 33  4.0000000  0 22G03G04G07G09G16G22G23G26G27G30
  22493975.702 0
  24456787.382 0
  21121264.446 0
  20511208.479 0
  21895222.470 0
  24628874.937 0
  20560988.600 0
  23883631.216 0
  24604499.799 0
  23947466.354 0
 17  9 10  1 33 10.0000000  0 22G03G04G07G09G16G22G23G26G27G30
  22497775.221 0
  24454994.509 0
  21119174.270 0
  20509833.071 0
  21896711.956 0
  24633181.378 0
  20562007.404 0
  23887023.531 0
  24601983.798 0
  23944160.718 0
 17  9 10  1 33 16.0000000  0 22G03G04G07G09G16G22G23G26G27G30
  22501577.618 0
  24453200.230 0
  21117086.617 0
  20508463.175 0
  21898215.643 0
  24637502.272 0
  20563031.043 0
  23890416.855 0
  24599472.855 0
  23940852.282 0
 17  9 10  1 33 22.0000000  0 22G03G04G07G09G16G22G23G26G27G30
  22505390.938 0
  24451396.396 0
  21115014.829 0
  20507096.564 0
  21899707.379 0
  24641821.753 0
  20564044.358 0
  23893806.639 0
  24596950.838 0
  23937556.589 0
 17  9 10  1 33 28.0000000  0 22G03G04G07G09G16G22G23G26G27G30
  22509189.004 0
  24449621.971 0
  21112922.151 0
  20505730.941 0
  21901219.967 0
  24646132.730 0
  20565078.606 0
  23897210.620 0
  24594450.348 0
  23934239.366 0
 17  9 10  1 33 34.0000000  0 22G03G04G07G09G16G22G23G26G27G30
  22512969.998 0
  24447896.335 0
  21110803.247 0
  20504366.068 0
  21902787.283 0
  24650431.381 0
  20566137.250 0
  23900682.636 0
  24591996.831 0
  23930864.017 0
 17  9 10  1 33 40.0000000  0 22G03G04G07G09G16G22G23G26G27G30
  22516771.848 0
  24446149.055 0
  21108706.936 0
  20503005.181 0
  21904328.029 0
  24654740.794 0
  20567180.424 0
  23904119.471 0
  24589521.690 0
  23927522.627 0
 17  9 10  1 33 46.0000000  0 22G03G04G07G09G16G22G23G26G27G30
  22520578.798 0
  24444399.390 0
  21106608.482 0
  20501642.648 0
  21905872.678 0
  24659051.091 0
  20568229.495 0
  23907551.975 0
  24587047.265 0
  23924192.364 0
 17  9 10  1 33 52.0000000  0 22G03G04G07G09G16G22G23G26G27G30
  22524385.469 0
  24442670.999 0
  21104507.897 0
  20500283.328 0
  21907427.554 0
  24663369.143 0
  20569282.709 0
  23911007.004 0
  24584584.309 0
  23920841.445 0
 17  9 10  1 33 58.0000000  0 22G03G04G07G09G16G22G23G26G27G30
  22528202.552 0
  24440909.800 0
  21102429.403 0
  20498924.193 0
  21908965.606 0
  24667689.934 0
  20570329.398 0
  23914421.047 0
  24582099.505 0
  23917524.790 0
 17  9 10  1 34  4.0000000  0 22G03G04G07G09G16G22G23G26G27G30
  22532027.193 0
  24439172.138 0
  21100339.443 0
  20497563.284 0
  21910519.274 0
  24672012.699 0
  20571384.571 0
  23917857.552 0
  24579633.450 0
  23914197.625 0
 17  9 10  1 34 10.0000000  0 22G03G04G07G09G16G22G23G26G27G30
  22535849.674 0
  24437428.973 0
  21098259.539 0
  20496211.909 0
  21912071.957 0
  24676337.214 0
  20572439.251 0
  23921291.670 0
  24577162.203 0
  23910873.697 0
 17  9 10  1 34 16.0000000  0 22G03G04G07G09G16G22G23G26G27G30
  22539677.293 0
  24435666.207 0
  21096195.702 0
  20494858.728 0
  21913615.574 0
  24680663.423 0
  20573489.454 0
  23924704.661 0
  24574674.686 0
  23907574.850 0
 17  9 10  1 34 22.0000000  0 22G03G04G07G09G16G22G23G26G27G30
  22543512.564 0
  24433903.635 0
  21094142.639 0
  20493510.362 0
  21915150.531 0
  24684990.345 0
  20574541.150 0
  23928117.199 0
  24572183.144 0
  23904287.535 0
 17  9 10  1 34 28.0000000  0 22G03G04G07G09G16G22G23G26G27G30
  22547304.085 0
  24432838.592 0
  21091598.183 0
  20492069.842 0
  21917192.034 0
  24689402.450 0
  20575859.809 0
  23932086.441 0
  24570363.311 0
  23900301.131 0
 17  9 10  1 34 34.0000000  0 22G03G04G07G09G16G22G23G26G27G30
  22551133.118 0
  24431196.416 0
  21089464.108 0
  20490710.589 0
  21918822.148 0
  24693739.011 0
  20576963.210 0
  23935597.267 0
  24567979.577 0
  23896897.337 0
 17  9 10  1 34 40.0000000  0 22G03G04G07G09G16G22G23G26G27G30
  22554948.912 0
  24429889.557 0
  21087104.923 0
  20489312.906 0
  21920688.277 0
  24698122.405 0
  20578194.435 0
  23939366.570 0
  24565925.678 0
  23893162.371 0
 17  9 10  1 34 46.0000000  0 22G03G04G07G09G16G22G23G26G27G30
  22558779.550 0
  24428204.899 0
  21085007.353 0
  20487964.585 0
  21922294.544 0
  24702452.536 0
  20579283.697 0
  23942850.314 0
  24563507.543 0
  23889804.808 0
 17  9 10  1 34 52.0000000  0 22G03G04G07G09G16G22G23G26G27G30
  22562615.612 0
  24426500.131 0
  21082931.967 0
  20486616.031 0
  21923892.676 0
  24706779.995 0
  20580367.290 0
  23946319.722 0
  24561071.020 0
  23886467.026 0
 17  9 10  1 34 58.0000000  0 22G03G04G07G09G16G22G23G26G27G30
  22566456.756 0
  24424755.519 0
  21080891.793 0
  20485285.249 0
  21925456.795 0
  24711101.420 0
  20581433.607 0
  23949740.429 0
  24558586.790 0
  23883185.826 0
 17  9 10  1 35  4.0000000  0 22G03G04G07G09G16G22G23G26G27G30
  22570299.883 0
  24423027.312 0
  21078833.823 0
  20483952.776 0
  21927042.966 0
  24715425.720 0
  20582513.535 0
  23953192.297 0
  24556128.165 0
  23879883.386 0
 17  9 10  1 35 10.0000000  0 22G03G04G07G09G16G22G23G26G27G30
  22574132.378 0
  24421339.334 0
  21076759.742 0
  20482619.140 0
  21928659.850 0
  24719743.963 0
  20583606.539 0
  23956678.888 0
  24553702.606 0
  23876537.015 0
 17  9 10  1 35 16.0000000  0 22G03G04G07G09G16G22G23G26G27G30
  22577922.215 0
  24419818.935 0
  21074572.299 0
  20481283.996 0
  21930412.319 0
  24724045.305 0
  20584769.976 0
  23960322.776 0
  24551419.635 0
  23873025.337 0
 17  9 10  1 35 22.0000000  0 22G03G04G07G09G16G22G23G26G27G30
  22581774.917 0
  24418070.935 0
  21072550.158 0
  20479955.183 0
  21931986.029 0
  24728365.156 0
  20585847.293 0
  23963751.597 0
  24548937.897 0
  23869748.707 0
 17  9 10  1 35 28.0000000  0 22G03G04G07G09G16G22G23G26G27G30
  22585483.170 0
  24416861.379 0
  21070152.826 0
  20478611.509 0
  21933983.462 0
  24732629.617 0
  20587144.416 0
  23967698.992 0
  24546940.074 0
